{
"type": "FeatureCollection",
"crs": { "type": "name", "properties": { "name": "urn:ogc:def:crs:OGC:1.3:CRS84" } },
"features": [
{ "type": "Feature", "properties": { "WSO1_ID": 881297, "station": "polmak", "som_key": 2488, "Country": "Norway" }, "geometry": { "type": "Point", "coordinates": [ 28.016007735370025, 70.07034472984779 ] } },
{ "type": "Feature", "properties": { "WSO1_ID": 881297, "station": "polmak", "som_key": 2487, "Country": "Norway" }, "geometry": { "type": "Point", "coordinates": [ 28.016007735370025, 70.07034472984779 ] } },
{ "type": "Feature", "properties": { "WSO1_ID": 881297, "station": "polmak", "som_key": 2563, "Country": "Norway" }, "geometry": { "type": "Point", "coordinates": [ 28.016007735370025, 70.07034472984779 ] } },
{ "type": "Feature", "properties": { "WSO1_ID": 882594, "station": "karpelv", "som_key": 2257, "Country": "Norway" }, "geometry": { "type": "Point", "coordinates": [ 30.384120654295192, 69.659911194240536 ] } },
{ "type": "Feature", "properties": { "WSO1_ID": 882594, "station": "karpelv", "som_key": 2332, "Country": "Norway" }, "geometry": { "type": "Point", "coordinates": [ 30.384120654295192, 69.659911194240536 ] } },
{ "type": "Feature", "properties": { "WSO1_ID": 882594, "station": "karpelv", "som_key": 3603, "Country": "Norway" }, "geometry": { "type": "Point", "coordinates": [ 30.384120654295192, 69.659911194240536 ] } },
{ "type": "Feature", "properties": { "WSO1_ID": 1059001, "station": "manndalen_bru", "som_key": 3979, "Country": "Norway" }, "geometry": { "type": "Point", "coordinates": [ 20.525619205845739, 69.523891322633261 ] } },
{ "type": "Feature", "properties": { "WSO1_ID": 1059001, "station": "manndalen_bru", "som_key": 3317, "Country": "Norway" }, "geometry": { "type": "Point", "coordinates": [ 20.525619205845739, 69.523891322633261 ] } },
{ "type": "Feature", "properties": { "WSO1_ID": 1059001, "station": "manndalen_bru", "som_key": 3242, "Country": "Norway" }, "geometry": { "type": "Point", "coordinates": [ 20.525619205845739, 69.523891322633261 ] } },
{ "type": "Feature", "properties": { "WSO1_ID": 1059001, "station": "manndalen_bru", "som_key": 4054, "Country": "Norway" }, "geometry": { "type": "Point", "coordinates": [ 20.525619205845739, 69.523891322633261 ] } },
{ "type": "Feature", "properties": { "WSO1_ID": 1059001, "station": "manndalen_bru", "som_key": 4430, "Country": "Norway" }, "geometry": { "type": "Point", "coordinates": [ 20.525619205845739, 69.523891322633261 ] } },
{ "type": "Feature", "properties": { "WSO1_ID": 1059001, "station": "manndalen_bru", "som_key": 3241, "Country": "Norway" }, "geometry": { "type": "Point", "coordinates": [ 20.525619205845739, 69.523891322633261 ] } },
{ "type": "Feature", "properties": { "WSO1_ID": 1059001, "station": "manndalen_bru", "som_key": 3166, "Country": "Norway" }, "geometry": { "type": "Point", "coordinates": [ 20.525619205845739, 69.523891322633261 ] } },
{ "type": "Feature", "properties": { "WSO1_ID": 1058709, "station": "masi", "som_key": 2406, "Country": "Norway" }, "geometry": { "type": "Point", "coordinates": [ 23.635036293110392, 69.420040896744325 ] } },
{ "type": "Feature", "properties": { "WSO1_ID": 1058709, "station": "masi", "som_key": 3154, "Country": "Norway" }, "geometry": { "type": "Point", "coordinates": [ 23.635036293110392, 69.420040896744325 ] } },
{ "type": "Feature", "properties": { "WSO1_ID": 1057779, "station": "skogfjordv", "som_key": 3094, "Country": "Norway" }, "geometry": { "type": "Point", "coordinates": [ 19.104124111066913, 69.98092589102815 ] } },
{ "type": "Feature", "properties": { "WSO1_ID": 1057779, "station": "skogfjordv", "som_key": 3018, "Country": "Norway" }, "geometry": { "type": "Point", "coordinates": [ 19.104124111066913, 69.98092589102815 ] } },
{ "type": "Feature", "properties": { "WSO1_ID": 1057779, "station": "skogfjordv", "som_key": 3019, "Country": "Norway" }, "geometry": { "type": "Point", "coordinates": [ 19.104124111066913, 69.98092589102815 ] } },
{ "type": "Feature", "properties": { "WSO1_ID": 1057779, "station": "skogfjordv", "som_key": 3093, "Country": "Norway" }, "geometry": { "type": "Point", "coordinates": [ 19.104124111066913, 69.98092589102815 ] } },
{ "type": "Feature", "properties": { "WSO1_ID": 1075427, "station": "berget", "som_key": 4435, "Country": "Norway" }, "geometry": { "type": "Point", "coordinates": [ 13.878476032150042, 66.456716406838908 ] } },
{ "type": "Feature", "properties": { "WSO1_ID": 1075427, "station": "berget", "som_key": 4286, "Country": "Norway" }, "geometry": { "type": "Point", "coordinates": [ 13.878476032150042, 66.456716406838908 ] } },
{ "type": "Feature", "properties": { "WSO1_ID": 1075427, "station": "berget", "som_key": 4212, "Country": "Norway" }, "geometry": { "type": "Point", "coordinates": [ 13.878476032150042, 66.456716406838908 ] } },
{ "type": "Feature", "properties": { "WSO1_ID": 1122920, "station": "fonnerdalsv", "som_key": 4441, "Country": "Norway" }, "geometry": { "type": "Point", "coordinates": [ 6.283018142916976, 60.06708084591429 ] } },
{ "type": "Feature", "properties": { "WSO1_ID": 1122920, "station": "fonnerdalsv", "som_key": 4440, "Country": "Norway" }, "geometry": { "type": "Point", "coordinates": [ 6.283018142916976, 60.06708084591429 ] } },
{ "type": "Feature", "properties": { "WSO1_ID": 1122920, "station": "fonnerdalsv", "som_key": 4437, "Country": "Norway" }, "geometry": { "type": "Point", "coordinates": [ 6.283018142916976, 60.06708084591429 ] } },
{ "type": "Feature", "properties": { "WSO1_ID": 1122920, "station": "fonnerdalsv", "som_key": 4438, "Country": "Norway" }, "geometry": { "type": "Point", "coordinates": [ 6.283018142916976, 60.06708084591429 ] } },
{ "type": "Feature", "properties": { "WSO1_ID": 1122920, "station": "fonnerdalsv", "som_key": 4439, "Country": "Norway" }, "geometry": { "type": "Point", "coordinates": [ 6.283018142916976, 60.06708084591429 ] } },
{ "type": "Feature", "properties": { "WSO1_ID": 1078355, "station": "fustvatn", "som_key": 3542, "Country": "Norway" }, "geometry": { "type": "Point", "coordinates": [ 13.307592756877892, 65.905236966957233 ] } },
{ "type": "Feature", "properties": { "WSO1_ID": 1078355, "station": "fustvatn", "som_key": 3387, "Country": "Norway" }, "geometry": { "type": "Point", "coordinates": [ 13.307592756877892, 65.905236966957233 ] } },
{ "type": "Feature", "properties": { "WSO1_ID": 1078355, "station": "fustvatn", "som_key": 3462, "Country": "Norway" }, "geometry": { "type": "Point", "coordinates": [ 13.307592756877892, 65.905236966957233 ] } },
{ "type": "Feature", "properties": { "WSO1_ID": 1078355, "station": "fustvatn", "som_key": 3461, "Country": "Norway" }, "geometry": { "type": "Point", "coordinates": [ 13.307592756877892, 65.905236966957233 ] } },
{ "type": "Feature", "properties": { "WSO1_ID": 1078355, "station": "fustvatn", "som_key": 3757, "Country": "Norway" }, "geometry": { "type": "Point", "coordinates": [ 13.307592756877892, 65.905236966957233 ] } },
{ "type": "Feature", "properties": { "WSO1_ID": 1078355, "station": "fustvatn", "som_key": 3683, "Country": "Norway" }, "geometry": { "type": "Point", "coordinates": [ 13.307592756877892, 65.905236966957233 ] } },
{ "type": "Feature", "properties": { "WSO1_ID": 1078355, "station": "fustvatn", "som_key": 3609, "Country": "Norway" }, "geometry": { "type": "Point", "coordinates": [ 13.307592756877892, 65.905236966957233 ] } },
{ "type": "Feature", "properties": { "WSO1_ID": 1078355, "station": "fustvatn", "som_key": 3463, "Country": "Norway" }, "geometry": { "type": "Point", "coordinates": [ 13.307592756877892, 65.905236966957233 ] } },
{ "type": "Feature", "properties": { "WSO1_ID": 1134078, "station": "haugland", "som_key": 2868, "Country": "Norway" }, "geometry": { "type": "Point", "coordinates": [ 5.647619171261855, 58.69289244123182 ] } },
{ "type": "Feature", "properties": { "WSO1_ID": 1134078, "station": "haugland", "som_key": 3104, "Country": "Norway" }, "geometry": { "type": "Point", "coordinates": [ 5.647619171261855, 58.69289244123182 ] } },
{ "type": "Feature", "properties": { "WSO1_ID": 1134078, "station": "haugland", "som_key": 2943, "Country": "Norway" }, "geometry": { "type": "Point", "coordinates": [ 5.647619171261855, 58.69289244123182 ] } },
{ "type": "Feature", "properties": { "WSO1_ID": 1134078, "station": "haugland", "som_key": 1825, "Country": "Norway" }, "geometry": { "type": "Point", "coordinates": [ 5.647619171261855, 58.69289244123182 ] } },
{ "type": "Feature", "properties": { "WSO1_ID": 1134078, "station": "haugland", "som_key": 2367, "Country": "Norway" }, "geometry": { "type": "Point", "coordinates": [ 5.647619171261855, 58.69289244123182 ] } },
{ "type": "Feature", "properties": { "WSO1_ID": 1134078, "station": "haugland", "som_key": 2292, "Country": "Norway" }, "geometry": { "type": "Point", "coordinates": [ 5.647619171261855, 58.69289244123182 ] } },
{ "type": "Feature", "properties": { "WSO1_ID": 1134078, "station": "haugland", "som_key": 2216, "Country": "Norway" }, "geometry": { "type": "Point", "coordinates": [ 5.647619171261855, 58.69289244123182 ] } },
{ "type": "Feature", "properties": { "WSO1_ID": 1134078, "station": "haugland", "som_key": 2792, "Country": "Norway" }, "geometry": { "type": "Point", "coordinates": [ 5.647619171261855, 58.69289244123182 ] } },
{ "type": "Feature", "properties": { "WSO1_ID": 1134078, "station": "haugland", "som_key": 2881, "Country": "Norway" }, "geometry": { "type": "Point", "coordinates": [ 5.647619171261855, 58.69289244123182 ] } },
{ "type": "Feature", "properties": { "WSO1_ID": 1134078, "station": "haugland", "som_key": 2141, "Country": "Norway" }, "geometry": { "type": "Point", "coordinates": [ 5.647619171261855, 58.69289244123182 ] } },
{ "type": "Feature", "properties": { "WSO1_ID": 1134078, "station": "haugland", "som_key": 1899, "Country": "Norway" }, "geometry": { "type": "Point", "coordinates": [ 5.647619171261855, 58.69289244123182 ] } },
{ "type": "Feature", "properties": { "WSO1_ID": 1073493, "station": "junkerdalselv", "som_key": 3978, "Country": "Norway" }, "geometry": { "type": "Point", "coordinates": [ 15.410687645277129, 66.814798101304262 ] } },
{ "type": "Feature", "properties": { "WSO1_ID": 1073493, "station": "junkerdalselv", "som_key": 4053, "Country": "Norway" }, "geometry": { "type": "Point", "coordinates": [ 15.410687645277129, 66.814798101304262 ] } },
{ "type": "Feature", "properties": { "WSO1_ID": 1073493, "station": "junkerdalselv", "som_key": 3166, "Country": "Norway" }, "geometry": { "type": "Point", "coordinates": [ 15.410687645277129, 66.814798101304262 ] } },
{ "type": "Feature", "properties": { "WSO1_ID": 1073493, "station": "junkerdalselv", "som_key": 3317, "Country": "Norway" }, "geometry": { "type": "Point", "coordinates": [ 15.410687645277129, 66.814798101304262 ] } },
{ "type": "Feature", "properties": { "WSO1_ID": 1073493, "station": "junkerdalselv", "som_key": 3242, "Country": "Norway" }, "geometry": { "type": "Point", "coordinates": [ 15.410687645277129, 66.814798101304262 ] } },
{ "type": "Feature", "properties": { "WSO1_ID": 1073493, "station": "junkerdalselv", "som_key": 3241, "Country": "Norway" }, "geometry": { "type": "Point", "coordinates": [ 15.410687645277129, 66.814798101304262 ] } },
{ "type": "Feature", "properties": { "WSO1_ID": 1073493, "station": "junkerdalselv", "som_key": 4054, "Country": "Norway" }, "geometry": { "type": "Point", "coordinates": [ 15.410687645277129, 66.814798101304262 ] } },
{ "type": "Feature", "properties": { "WSO1_ID": 1117321, "station": "knappom", "som_key": 2261, "Country": "Norway" }, "geometry": { "type": "Point", "coordinates": [ 12.047124808441948, 60.641170208470157 ] } },
{ "type": "Feature", "properties": { "WSO1_ID": 1117321, "station": "knappom", "som_key": 2262, "Country": "Norway" }, "geometry": { "type": "Point", "coordinates": [ 12.047124808441948, 60.641170208470157 ] } },
{ "type": "Feature", "properties": { "WSO1_ID": 1068649, "station": "morsvik_bru", "som_key": 3453, "Country": "Norway" }, "geometry": { "type": "Point", "coordinates": [ 15.873569880775793, 67.715711704906568 ] } },
{ "type": "Feature", "properties": { "WSO1_ID": 1068649, "station": "morsvik_bru", "som_key": 3378, "Country": "Norway" }, "geometry": { "type": "Point", "coordinates": [ 15.873569880775793, 67.715711704906568 ] } },
{ "type": "Feature", "properties": { "WSO1_ID": 1068649, "station": "morsvik_bru", "som_key": 3529, "Country": "Norway" }, "geometry": { "type": "Point", "coordinates": [ 15.873569880775793, 67.715711704906568 ] } },
{ "type": "Feature", "properties": { "WSO1_ID": 1068649, "station": "morsvik_bru", "som_key": 3528, "Country": "Norway" }, "geometry": { "type": "Point", "coordinates": [ 15.873569880775793, 67.715711704906568 ] } },
{ "type": "Feature", "properties": { "WSO1_ID": 1080482, "station": "nervoll", "som_key": 4056, "Country": "Norway" }, "geometry": { "type": "Point", "coordinates": [ 13.986035559781486, 65.437571574242156 ] } },
{ "type": "Feature", "properties": { "WSO1_ID": 1080482, "station": "nervoll", "som_key": 4205, "Country": "Norway" }, "geometry": { "type": "Point", "coordinates": [ 13.986035559781486, 65.437571574242156 ] } },
{ "type": "Feature", "properties": { "WSO1_ID": 1080482, "station": "nervoll", "som_key": 3759, "Country": "Norway" }, "geometry": { "type": "Point", "coordinates": [ 13.986035559781486, 65.437571574242156 ] } },
{ "type": "Feature", "properties": { "WSO1_ID": 1080482, "station": "nervoll", "som_key": 3614, "Country": "Norway" }, "geometry": { "type": "Point", "coordinates": [ 13.986035559781486, 65.437571574242156 ] } },
{ "type": "Feature", "properties": { "WSO1_ID": 1080482, "station": "nervoll", "som_key": 4430, "Country": "Norway" }, "geometry": { "type": "Point", "coordinates": [ 13.986035559781486, 65.437571574242156 ] } },
{ "type": "Feature", "properties": { "WSO1_ID": 1080482, "station": "nervoll", "som_key": 3907, "Country": "Norway" }, "geometry": { "type": "Point", "coordinates": [ 13.986035559781486, 65.437571574242156 ] } },
{ "type": "Feature", "properties": { "WSO1_ID": 1080482, "station": "nervoll", "som_key": 3982, "Country": "Norway" }, "geometry": { "type": "Point", "coordinates": [ 13.986035559781486, 65.437571574242156 ] } },
{ "type": "Feature", "properties": { "WSO1_ID": 1080482, "station": "nervoll", "som_key": 3833, "Country": "Norway" }, "geometry": { "type": "Point", "coordinates": [ 13.986035559781486, 65.437571574242156 ] } },
{ "type": "Feature", "properties": { "WSO1_ID": 1080482, "station": "nervoll", "som_key": 3613, "Country": "Norway" }, "geometry": { "type": "Point", "coordinates": [ 13.986035559781486, 65.437571574242156 ] } },
{ "type": "Feature", "properties": { "WSO1_ID": 1080482, "station": "nervoll", "som_key": 3685, "Country": "Norway" }, "geometry": { "type": "Point", "coordinates": [ 13.986035559781486, 65.437571574242156 ] } },
{ "type": "Feature", "properties": { "WSO1_ID": 1080482, "station": "nervoll", "som_key": 3611, "Country": "Norway" }, "geometry": { "type": "Point", "coordinates": [ 13.986035559781486, 65.437571574242156 ] } },
{ "type": "Feature", "properties": { "WSO1_ID": 1080482, "station": "nervoll", "som_key": 3758, "Country": "Norway" }, "geometry": { "type": "Point", "coordinates": [ 13.986035559781486, 65.437571574242156 ] } },
{ "type": "Feature", "properties": { "WSO1_ID": 1080482, "station": "nervoll", "som_key": 4280, "Country": "Norway" }, "geometry": { "type": "Point", "coordinates": [ 13.986035559781486, 65.437571574242156 ] } },
{ "type": "Feature", "properties": { "WSO1_ID": 1080482, "station": "nervoll", "som_key": 4131, "Country": "Norway" }, "geometry": { "type": "Point", "coordinates": [ 13.986035559781486, 65.437571574242156 ] } },
{ "type": "Feature", "properties": { "WSO1_ID": 1080482, "station": "nervoll", "som_key": 3612, "Country": "Norway" }, "geometry": { "type": "Point", "coordinates": [ 13.986035559781486, 65.437571574242156 ] } },
{ "type": "Feature", "properties": { "WSO1_ID": 1062644, "station": "ovrevatn", "som_key": 3392, "Country": "Norway" }, "geometry": { "type": "Point", "coordinates": [ 17.934531028770675, 68.874128804882915 ] } },
{ "type": "Feature", "properties": { "WSO1_ID": 1062644, "station": "ovrevatn", "som_key": 3317, "Country": "Norway" }, "geometry": { "type": "Point", "coordinates": [ 17.934531028770675, 68.874128804882915 ] } },
{ "type": "Feature", "properties": { "WSO1_ID": 1062644, "station": "ovrevatn", "som_key": 3241, "Country": "Norway" }, "geometry": { "type": "Point", "coordinates": [ 17.934531028770675, 68.874128804882915 ] } },
{ "type": "Feature", "properties": { "WSO1_ID": 1062644, "station": "ovrevatn", "som_key": 3316, "Country": "Norway" }, "geometry": { "type": "Point", "coordinates": [ 17.934531028770675, 68.874128804882915 ] } },
{ "type": "Feature", "properties": { "WSO1_ID": 1062644, "station": "ovrevatn", "som_key": 3979, "Country": "Norway" }, "geometry": { "type": "Point", "coordinates": [ 17.934531028770675, 68.874128804882915 ] } },
{ "type": "Feature", "properties": { "WSO1_ID": 1062644, "station": "ovrevatn", "som_key": 3165, "Country": "Norway" }, "geometry": { "type": "Point", "coordinates": [ 17.934531028770675, 68.874128804882915 ] } },
{ "type": "Feature", "properties": { "WSO1_ID": 1065324, "station": "ovstevatn", "som_key": 3317, "Country": "Norway" }, "geometry": { "type": "Point", "coordinates": [ 17.489688756423433, 68.34785521260838 ] } },
{ "type": "Feature", "properties": { "WSO1_ID": 1065324, "station": "ovstevatn", "som_key": 3979, "Country": "Norway" }, "geometry": { "type": "Point", "coordinates": [ 17.489688756423433, 68.34785521260838 ] } },
{ "type": "Feature", "properties": { "WSO1_ID": 1065324, "station": "ovstevatn", "som_key": 3242, "Country": "Norway" }, "geometry": { "type": "Point", "coordinates": [ 17.489688756423433, 68.34785521260838 ] } },
{ "type": "Feature", "properties": { "WSO1_ID": 1065324, "station": "ovstevatn", "som_key": 3626, "Country": "Norway" }, "geometry": { "type": "Point", "coordinates": [ 17.489688756423433, 68.34785521260838 ] } },
{ "type": "Feature", "properties": { "WSO1_ID": 1065324, "station": "ovstevatn", "som_key": 4054, "Country": "Norway" }, "geometry": { "type": "Point", "coordinates": [ 17.489688756423433, 68.34785521260838 ] } },
{ "type": "Feature", "properties": { "WSO1_ID": 1124288, "station": "reinsnosv", "som_key": 4356, "Country": "Norway" }, "geometry": { "type": "Point", "coordinates": [ 6.673597323765807, 59.946740891695868 ] } },
{ "type": "Feature", "properties": { "WSO1_ID": 1124288, "station": "reinsnosv", "som_key": 4431, "Country": "Norway" }, "geometry": { "type": "Point", "coordinates": [ 6.673597323765807, 59.946740891695868 ] } },
{ "type": "Feature", "properties": { "WSO1_ID": 1124288, "station": "reinsnosv", "som_key": 4282, "Country": "Norway" }, "geometry": { "type": "Point", "coordinates": [ 6.673597323765807, 59.946740891695868 ] } },
{ "type": "Feature", "properties": { "WSO1_ID": 1124288, "station": "reinsnosv", "som_key": 4208, "Country": "Norway" }, "geometry": { "type": "Point", "coordinates": [ 6.673597323765807, 59.946740891695868 ] } },
{ "type": "Feature", "properties": { "WSO1_ID": 1124288, "station": "reinsnosv", "som_key": 4133, "Country": "Norway" }, "geometry": { "type": "Point", "coordinates": [ 6.673597323765807, 59.946740891695868 ] } },
{ "type": "Feature", "properties": { "WSO1_ID": 1124288, "station": "reinsnosv", "som_key": 3842, "Country": "Norway" }, "geometry": { "type": "Point", "coordinates": [ 6.673597323765807, 59.946740891695868 ] } },
{ "type": "Feature", "properties": { "WSO1_ID": 1124288, "station": "reinsnosv", "som_key": 3767, "Country": "Norway" }, "geometry": { "type": "Point", "coordinates": [ 6.673597323765807, 59.946740891695868 ] } },
{ "type": "Feature", "properties": { "WSO1_ID": 1124288, "station": "reinsnosv", "som_key": 4207, "Country": "Norway" }, "geometry": { "type": "Point", "coordinates": [ 6.673597323765807, 59.946740891695868 ] } },
{ "type": "Feature", "properties": { "WSO1_ID": 1124288, "station": "reinsnosv", "som_key": 3914, "Country": "Norway" }, "geometry": { "type": "Point", "coordinates": [ 6.673597323765807, 59.946740891695868 ] } },
{ "type": "Feature", "properties": { "WSO1_ID": 1124288, "station": "reinsnosv", "som_key": 3840, "Country": "Norway" }, "geometry": { "type": "Point", "coordinates": [ 6.673597323765807, 59.946740891695868 ] } },
{ "type": "Feature", "properties": { "WSO1_ID": 1124288, "station": "reinsnosv", "som_key": 4134, "Country": "Norway" }, "geometry": { "type": "Point", "coordinates": [ 6.673597323765807, 59.946740891695868 ] } },
{ "type": "Feature", "properties": { "WSO1_ID": 1071973, "station": "skarsvatn", "som_key": 3389, "Country": "Norway" }, "geometry": { "type": "Point", "coordinates": [ 14.985583244562781, 67.079329263816774 ] } },
{ "type": "Feature", "properties": { "WSO1_ID": 1071973, "station": "skarsvatn", "som_key": 3238, "Country": "Norway" }, "geometry": { "type": "Point", "coordinates": [ 14.985583244562781, 67.079329263816774 ] } },
{ "type": "Feature", "properties": { "WSO1_ID": 1071973, "station": "skarsvatn", "som_key": 3313, "Country": "Norway" }, "geometry": { "type": "Point", "coordinates": [ 14.985583244562781, 67.079329263816774 ] } },
{ "type": "Feature", "properties": { "WSO1_ID": 1071973, "station": "skarsvatn", "som_key": 3465, "Country": "Norway" }, "geometry": { "type": "Point", "coordinates": [ 14.985583244562781, 67.079329263816774 ] } },
{ "type": "Feature", "properties": { "WSO1_ID": 1071973, "station": "skarsvatn", "som_key": 3314, "Country": "Norway" }, "geometry": { "type": "Point", "coordinates": [ 14.985583244562781, 67.079329263816774 ] } },
{ "type": "Feature", "properties": { "WSO1_ID": 1071973, "station": "skarsvatn", "som_key": 3390, "Country": "Norway" }, "geometry": { "type": "Point", "coordinates": [ 14.985583244562781, 67.079329263816774 ] } },
{ "type": "Feature", "properties": { "WSO1_ID": 1071973, "station": "skarsvatn", "som_key": 3541, "Country": "Norway" }, "geometry": { "type": "Point", "coordinates": [ 14.985583244562781, 67.079329263816774 ] } },
{ "type": "Feature", "properties": { "WSO1_ID": 1071973, "station": "skarsvatn", "som_key": 3542, "Country": "Norway" }, "geometry": { "type": "Point", "coordinates": [ 14.985583244562781, 67.079329263816774 ] } },
{ "type": "Feature", "properties": { "WSO1_ID": 1069527, "station": "strandaa", "som_key": 2859, "Country": "Norway" }, "geometry": { "type": "Point", "coordinates": [ 14.876696635524441, 67.53924589448944 ] } },
{ "type": "Feature", "properties": { "WSO1_ID": 1069527, "station": "strandaa", "som_key": 3532, "Country": "Norway" }, "geometry": { "type": "Point", "coordinates": [ 14.876696635524441, 67.53924589448944 ] } },
{ "type": "Feature", "properties": { "WSO1_ID": 1069527, "station": "strandaa", "som_key": 3533, "Country": "Norway" }, "geometry": { "type": "Point", "coordinates": [ 14.876696635524441, 67.53924589448944 ] } },
{ "type": "Feature", "properties": { "WSO1_ID": 1085873, "station": "trangen", "som_key": 3154, "Country": "Norway" }, "geometry": { "type": "Point", "coordinates": [ 12.48164928606014, 64.43046652314564 ] } },
{ "type": "Feature", "properties": { "WSO1_ID": 1085873, "station": "trangen", "som_key": 3005, "Country": "Norway" }, "geometry": { "type": "Point", "coordinates": [ 12.48164928606014, 64.43046652314564 ] } },
{ "type": "Feature", "properties": { "WSO1_ID": 1085873, "station": "trangen", "som_key": 3229, "Country": "Norway" }, "geometry": { "type": "Point", "coordinates": [ 12.48164928606014, 64.43046652314564 ] } },
{ "type": "Feature", "properties": { "WSO1_ID": 1085873, "station": "trangen", "som_key": 3456, "Country": "Norway" }, "geometry": { "type": "Point", "coordinates": [ 12.48164928606014, 64.43046652314564 ] } },
{ "type": "Feature", "properties": { "WSO1_ID": 1085873, "station": "trangen", "som_key": 3457, "Country": "Norway" }, "geometry": { "type": "Point", "coordinates": [ 12.48164928606014, 64.43046652314564 ] } },
{ "type": "Feature", "properties": { "WSO1_ID": 1085873, "station": "trangen", "som_key": 3080, "Country": "Norway" }, "geometry": { "type": "Point", "coordinates": [ 12.48164928606014, 64.43046652314564 ] } },
{ "type": "Feature", "properties": { "WSO1_ID": 1076043, "station": "vassvatn", "som_key": 3919, "Country": "Norway" }, "geometry": { "type": "Point", "coordinates": [ 13.180768928869561, 66.392625873447486 ] } },
{ "type": "Feature", "properties": { "WSO1_ID": 1076043, "station": "vassvatn", "som_key": 4281, "Country": "Norway" }, "geometry": { "type": "Point", "coordinates": [ 13.180768928869561, 66.392625873447486 ] } },
{ "type": "Feature", "properties": { "WSO1_ID": 1089947, "station": "veravatn", "som_key": 3306, "Country": "Norway" }, "geometry": { "type": "Point", "coordinates": [ 12.326542975635826, 63.789341411259436 ] } },
{ "type": "Feature", "properties": { "WSO1_ID": 1089947, "station": "veravatn", "som_key": 3231, "Country": "Norway" }, "geometry": { "type": "Point", "coordinates": [ 12.326542975635826, 63.789341411259436 ] } },
{ "type": "Feature", "properties": { "WSO1_ID": 1089947, "station": "veravatn", "som_key": 3381, "Country": "Norway" }, "geometry": { "type": "Point", "coordinates": [ 12.326542975635826, 63.789341411259436 ] } },
{ "type": "Feature", "properties": { "WSO1_ID": 1089947, "station": "veravatn", "som_key": 3156, "Country": "Norway" }, "geometry": { "type": "Point", "coordinates": [ 12.326542975635826, 63.789341411259436 ] } },
{ "type": "Feature", "properties": { "WSO1_ID": 1089947, "station": "veravatn", "som_key": 3456, "Country": "Norway" }, "geometry": { "type": "Point", "coordinates": [ 12.326542975635826, 63.789341411259436 ] } },
{ "type": "Feature", "properties": { "WSO1_ID": 1134918, "station": "aardal", "som_key": 3397, "Country": "Norway" }, "geometry": { "type": "Point", "coordinates": [ 6.49791316483858, 58.543667054304123 ] } },
{ "type": "Feature", "properties": { "WSO1_ID": 1134918, "station": "aardal", "som_key": 3398, "Country": "Norway" }, "geometry": { "type": "Point", "coordinates": [ 6.49791316483858, 58.543667054304123 ] } },
{ "type": "Feature", "properties": { "WSO1_ID": 1134918, "station": "aardal", "som_key": 3322, "Country": "Norway" }, "geometry": { "type": "Point", "coordinates": [ 6.49791316483858, 58.543667054304123 ] } },
{ "type": "Feature", "properties": { "WSO1_ID": 1134918, "station": "aardal", "som_key": 3473, "Country": "Norway" }, "geometry": { "type": "Point", "coordinates": [ 6.49791316483858, 58.543667054304123 ] } },
{ "type": "Feature", "properties": { "WSO1_ID": 1134918, "station": "aardal", "som_key": 3396, "Country": "Norway" }, "geometry": { "type": "Point", "coordinates": [ 6.49791316483858, 58.543667054304123 ] } },
{ "type": "Feature", "properties": { "WSO1_ID": 1105573, "station": "akslen", "som_key": 4137, "Country": "Norway" }, "geometry": { "type": "Point", "coordinates": [ 8.447218251105046, 61.799549607777848 ] } },
{ "type": "Feature", "properties": { "WSO1_ID": 1105573, "station": "akslen", "som_key": 4210, "Country": "Norway" }, "geometry": { "type": "Point", "coordinates": [ 8.447218251105046, 61.799549607777848 ] } },
{ "type": "Feature", "properties": { "WSO1_ID": 1105573, "station": "akslen", "som_key": 4433, "Country": "Norway" }, "geometry": { "type": "Point", "coordinates": [ 8.447218251105046, 61.799549607777848 ] } },
{ "type": "Feature", "properties": { "WSO1_ID": 1105573, "station": "akslen", "som_key": 4063, "Country": "Norway" }, "geometry": { "type": "Point", "coordinates": [ 8.447218251105046, 61.799549607777848 ] } },
{ "type": "Feature", "properties": { "WSO1_ID": 1105573, "station": "akslen", "som_key": 4284, "Country": "Norway" }, "geometry": { "type": "Point", "coordinates": [ 8.447218251105046, 61.799549607777848 ] } },
{ "type": "Feature", "properties": { "WSO1_ID": 1105573, "station": "akslen", "som_key": 4064, "Country": "Norway" }, "geometry": { "type": "Point", "coordinates": [ 8.447218251105046, 61.799549607777848 ] } },
{ "type": "Feature", "properties": { "WSO1_ID": 1105092, "station": "atnasjo", "som_key": 3687, "Country": "Norway" }, "geometry": { "type": "Point", "coordinates": [ 10.22211912158452, 61.851938538549867 ] } },
{ "type": "Feature", "properties": { "WSO1_ID": 1105092, "station": "atnasjo", "som_key": 3908, "Country": "Norway" }, "geometry": { "type": "Point", "coordinates": [ 10.22211912158452, 61.851938538549867 ] } },
{ "type": "Feature", "properties": { "WSO1_ID": 1105092, "station": "atnasjo", "som_key": 3982, "Country": "Norway" }, "geometry": { "type": "Point", "coordinates": [ 10.22211912158452, 61.851938538549867 ] } },
{ "type": "Feature", "properties": { "WSO1_ID": 1105092, "station": "atnasjo", "som_key": 3688, "Country": "Norway" }, "geometry": { "type": "Point", "coordinates": [ 10.22211912158452, 61.851938538549867 ] } },
{ "type": "Feature", "properties": { "WSO1_ID": 1105092, "station": "atnasjo", "som_key": 3613, "Country": "Norway" }, "geometry": { "type": "Point", "coordinates": [ 10.22211912158452, 61.851938538549867 ] } },
{ "type": "Feature", "properties": { "WSO1_ID": 1105092, "station": "atnasjo", "som_key": 3834, "Country": "Norway" }, "geometry": { "type": "Point", "coordinates": [ 10.22211912158452, 61.851938538549867 ] } },
{ "type": "Feature", "properties": { "WSO1_ID": 1105092, "station": "atnasjo", "som_key": 3983, "Country": "Norway" }, "geometry": { "type": "Point", "coordinates": [ 10.22211912158452, 61.851938538549867 ] } },
{ "type": "Feature", "properties": { "WSO1_ID": 1105092, "station": "atnasjo", "som_key": 3909, "Country": "Norway" }, "geometry": { "type": "Point", "coordinates": [ 10.22211912158452, 61.851938538549867 ] } },
{ "type": "Feature", "properties": { "WSO1_ID": 1105092, "station": "atnasjo", "som_key": 3760, "Country": "Norway" }, "geometry": { "type": "Point", "coordinates": [ 10.22211912158452, 61.851938538549867 ] } },
{ "type": "Feature", "properties": { "WSO1_ID": 1133494, "station": "austenaa", "som_key": 3545, "Country": "Norway" }, "geometry": { "type": "Point", "coordinates": [ 8.100525228489643, 58.839632911739344 ] } },
{ "type": "Feature", "properties": { "WSO1_ID": 1133494, "station": "austenaa", "som_key": 2785, "Country": "Norway" }, "geometry": { "type": "Point", "coordinates": [ 8.100525228489643, 58.839632911739344 ] } },
{ "type": "Feature", "properties": { "WSO1_ID": 1134098, "station": "bjordal", "som_key": 3692, "Country": "Norway" }, "geometry": { "type": "Point", "coordinates": [ 6.504631474220413, 58.688931395883877 ] } },
{ "type": "Feature", "properties": { "WSO1_ID": 1134098, "station": "bjordal", "som_key": 3691, "Country": "Norway" }, "geometry": { "type": "Point", "coordinates": [ 6.504631474220413, 58.688931395883877 ] } },
{ "type": "Feature", "properties": { "WSO1_ID": 1134098, "station": "bjordal", "som_key": 4206, "Country": "Norway" }, "geometry": { "type": "Point", "coordinates": [ 6.504631474220413, 58.688931395883877 ] } },
{ "type": "Feature", "properties": { "WSO1_ID": 1134098, "station": "bjordal", "som_key": 3690, "Country": "Norway" }, "geometry": { "type": "Point", "coordinates": [ 6.504631474220413, 58.688931395883877 ] } },
{ "type": "Feature", "properties": { "WSO1_ID": 1134098, "station": "bjordal", "som_key": 4205, "Country": "Norway" }, "geometry": { "type": "Point", "coordinates": [ 6.504631474220413, 58.688931395883877 ] } },
{ "type": "Feature", "properties": { "WSO1_ID": 1119787, "station": "bjoreio", "som_key": 3983, "Country": "Norway" }, "geometry": { "type": "Point", "coordinates": [ 7.395787537973189, 60.385238973738417 ] } },
{ "type": "Feature", "properties": { "WSO1_ID": 1119787, "station": "bjoreio", "som_key": 3836, "Country": "Norway" }, "geometry": { "type": "Point", "coordinates": [ 7.395787537973189, 60.385238973738417 ] } },
{ "type": "Feature", "properties": { "WSO1_ID": 1119787, "station": "bjoreio", "som_key": 3837, "Country": "Norway" }, "geometry": { "type": "Point", "coordinates": [ 7.395787537973189, 60.385238973738417 ] } },
{ "type": "Feature", "properties": { "WSO1_ID": 1119787, "station": "bjoreio", "som_key": 3909, "Country": "Norway" }, "geometry": { "type": "Point", "coordinates": [ 7.395787537973189, 60.385238973738417 ] } },
{ "type": "Feature", "properties": { "WSO1_ID": 1119787, "station": "bjoreio", "som_key": 3835, "Country": "Norway" }, "geometry": { "type": "Point", "coordinates": [ 7.395787537973189, 60.385238973738417 ] } },
{ "type": "Feature", "properties": { "WSO1_ID": 1119787, "station": "bjoreio", "som_key": 3762, "Country": "Norway" }, "geometry": { "type": "Point", "coordinates": [ 7.395787537973189, 60.385238973738417 ] } },
{ "type": "Feature", "properties": { "WSO1_ID": 1119787, "station": "bjoreio", "som_key": 3910, "Country": "Norway" }, "geometry": { "type": "Point", "coordinates": [ 7.395787537973189, 60.385238973738417 ] } },
{ "type": "Feature", "properties": { "WSO1_ID": 1119787, "station": "bjoreio", "som_key": 4132, "Country": "Norway" }, "geometry": { "type": "Point", "coordinates": [ 7.395787537973189, 60.385238973738417 ] } },
{ "type": "Feature", "properties": { "WSO1_ID": 1119787, "station": "bjoreio", "som_key": 3763, "Country": "Norway" }, "geometry": { "type": "Point", "coordinates": [ 7.395787537973189, 60.385238973738417 ] } },
{ "type": "Feature", "properties": { "WSO1_ID": 1119787, "station": "bjoreio", "som_key": 4206, "Country": "Norway" }, "geometry": { "type": "Point", "coordinates": [ 7.395787537973189, 60.385238973738417 ] } },
{ "type": "Feature", "properties": { "WSO1_ID": 1119787, "station": "bjoreio", "som_key": 3764, "Country": "Norway" }, "geometry": { "type": "Point", "coordinates": [ 7.395787537973189, 60.385238973738417 ] } },
{ "type": "Feature", "properties": { "WSO1_ID": 1119787, "station": "bjoreio", "som_key": 3984, "Country": "Norway" }, "geometry": { "type": "Point", "coordinates": [ 7.395787537973189, 60.385238973738417 ] } },
{ "type": "Feature", "properties": { "WSO1_ID": 1119787, "station": "bjoreio", "som_key": 4058, "Country": "Norway" }, "geometry": { "type": "Point", "coordinates": [ 7.395787537973189, 60.385238973738417 ] } },
{ "type": "Feature", "properties": { "WSO1_ID": 1109160, "station": "boyumselv", "som_key": 4362, "Country": "Norway" }, "geometry": { "type": "Point", "coordinates": [ 6.742683845008654, 61.448699743194403 ] } },
{ "type": "Feature", "properties": { "WSO1_ID": 1109160, "station": "boyumselv", "som_key": 4436, "Country": "Norway" }, "geometry": { "type": "Point", "coordinates": [ 6.742683845008654, 61.448699743194403 ] } },
{ "type": "Feature", "properties": { "WSO1_ID": 1109160, "station": "boyumselv", "som_key": 4288, "Country": "Norway" }, "geometry": { "type": "Point", "coordinates": [ 6.742683845008654, 61.448699743194403 ] } },
{ "type": "Feature", "properties": { "WSO1_ID": 1109160, "station": "boyumselv", "som_key": 4289, "Country": "Norway" }, "geometry": { "type": "Point", "coordinates": [ 6.742683845008654, 61.448699743194403 ] } },
{ "type": "Feature", "properties": { "WSO1_ID": 1109160, "station": "boyumselv", "som_key": 4290, "Country": "Norway" }, "geometry": { "type": "Point", "coordinates": [ 6.742683845008654, 61.448699743194403 ] } },
{ "type": "Feature", "properties": { "WSO1_ID": 1115239, "station": "brekke_bru", "som_key": 4134, "Country": "Norway" }, "geometry": { "type": "Point", "coordinates": [ 7.1142547387267, 60.84999414507498 ] } },
{ "type": "Feature", "properties": { "WSO1_ID": 1115239, "station": "brekke_bru", "som_key": 4208, "Country": "Norway" }, "geometry": { "type": "Point", "coordinates": [ 7.1142547387267, 60.84999414507498 ] } },
{ "type": "Feature", "properties": { "WSO1_ID": 1115239, "station": "brekke_bru", "som_key": 4209, "Country": "Norway" }, "geometry": { "type": "Point", "coordinates": [ 7.1142547387267, 60.84999414507498 ] } },
{ "type": "Feature", "properties": { "WSO1_ID": 1115239, "station": "brekke_bru", "som_key": 4135, "Country": "Norway" }, "geometry": { "type": "Point", "coordinates": [ 7.1142547387267, 60.84999414507498 ] } },
{ "type": "Feature", "properties": { "WSO1_ID": 1115239, "station": "brekke_bru", "som_key": 4431, "Country": "Norway" }, "geometry": { "type": "Point", "coordinates": [ 7.1142547387267, 60.84999414507498 ] } },
{ "type": "Feature", "properties": { "WSO1_ID": 1115239, "station": "brekke_bru", "som_key": 3915, "Country": "Norway" }, "geometry": { "type": "Point", "coordinates": [ 7.1142547387267, 60.84999414507498 ] } },
{ "type": "Feature", "properties": { "WSO1_ID": 1115239, "station": "brekke_bru", "som_key": 4357, "Country": "Norway" }, "geometry": { "type": "Point", "coordinates": [ 7.1142547387267, 60.84999414507498 ] } },
{ "type": "Feature", "properties": { "WSO1_ID": 1115239, "station": "brekke_bru", "som_key": 4282, "Country": "Norway" }, "geometry": { "type": "Point", "coordinates": [ 7.1142547387267, 60.84999414507498 ] } },
{ "type": "Feature", "properties": { "WSO1_ID": 1115239, "station": "brekke_bru", "som_key": 3989, "Country": "Norway" }, "geometry": { "type": "Point", "coordinates": [ 7.1142547387267, 60.84999414507498 ] } },
{ "type": "Feature", "properties": { "WSO1_ID": 1115239, "station": "brekke_bru", "som_key": 3914, "Country": "Norway" }, "geometry": { "type": "Point", "coordinates": [ 7.1142547387267, 60.84999414507498 ] } },
{ "type": "Feature", "properties": { "WSO1_ID": 1115239, "station": "brekke_bru", "som_key": 3916, "Country": "Norway" }, "geometry": { "type": "Point", "coordinates": [ 7.1142547387267, 60.84999414507498 ] } },
{ "type": "Feature", "properties": { "WSO1_ID": 1115239, "station": "brekke_bru", "som_key": 4283, "Country": "Norway" }, "geometry": { "type": "Point", "coordinates": [ 7.1142547387267, 60.84999414507498 ] } },
{ "type": "Feature", "properties": { "WSO1_ID": 1117093, "station": "bulken", "som_key": 3621, "Country": "Norway" }, "geometry": { "type": "Point", "coordinates": [ 6.292537182522744, 60.628682807511552 ] } },
{ "type": "Feature", "properties": { "WSO1_ID": 1117093, "station": "bulken", "som_key": 3622, "Country": "Norway" }, "geometry": { "type": "Point", "coordinates": [ 6.292537182522744, 60.628682807511552 ] } },
{ "type": "Feature", "properties": { "WSO1_ID": 1117093, "station": "bulken", "som_key": 4431, "Country": "Norway" }, "geometry": { "type": "Point", "coordinates": [ 6.292537182522744, 60.628682807511552 ] } },
{ "type": "Feature", "properties": { "WSO1_ID": 1130515, "station": "djupadalsv", "som_key": 3549, "Country": "Norway" }, "geometry": { "type": "Point", "coordinates": [ 6.368566878769813, 59.25500129147833 ] } },
{ "type": "Feature", "properties": { "WSO1_ID": 1130515, "station": "djupadalsv", "som_key": 3624, "Country": "Norway" }, "geometry": { "type": "Point", "coordinates": [ 6.368566878769813, 59.25500129147833 ] } },
{ "type": "Feature", "properties": { "WSO1_ID": 1130515, "station": "djupadalsv", "som_key": 3544, "Country": "Norway" }, "geometry": { "type": "Point", "coordinates": [ 6.368566878769813, 59.25500129147833 ] } },
{ "type": "Feature", "properties": { "WSO1_ID": 1130515, "station": "djupadalsv", "som_key": 4280, "Country": "Norway" }, "geometry": { "type": "Point", "coordinates": [ 6.368566878769813, 59.25500129147833 ] } },
{ "type": "Feature", "properties": { "WSO1_ID": 1095499, "station": "eggafoss", "som_key": 2859, "Country": "Norway" }, "geometry": { "type": "Point", "coordinates": [ 11.183879939554121, 62.890106832909531 ] } },
{ "type": "Feature", "properties": { "WSO1_ID": 1095499, "station": "eggafoss", "som_key": 3459, "Country": "Norway" }, "geometry": { "type": "Point", "coordinates": [ 11.183879939554121, 62.890106832909531 ] } },
{ "type": "Feature", "properties": { "WSO1_ID": 1095499, "station": "eggafoss", "som_key": 3533, "Country": "Norway" }, "geometry": { "type": "Point", "coordinates": [ 11.183879939554121, 62.890106832909531 ] } },
{ "type": "Feature", "properties": { "WSO1_ID": 1122550, "station": "eggedal", "som_key": 3163, "Country": "Norway" }, "geometry": { "type": "Point", "coordinates": [ 9.434388309811585, 60.151761350623197 ] } },
{ "type": "Feature", "properties": { "WSO1_ID": 1122550, "station": "eggedal", "som_key": 1968, "Country": "Norway" }, "geometry": { "type": "Point", "coordinates": [ 9.434388309811585, 60.151761350623197 ] } },
{ "type": "Feature", "properties": { "WSO1_ID": 1122550, "station": "eggedal", "som_key": 3390, "Country": "Norway" }, "geometry": { "type": "Point", "coordinates": [ 9.434388309811585, 60.151761350623197 ] } },
{ "type": "Feature", "properties": { "WSO1_ID": 1122550, "station": "eggedal", "som_key": 3239, "Country": "Norway" }, "geometry": { "type": "Point", "coordinates": [ 9.434388309811585, 60.151761350623197 ] } },
{ "type": "Feature", "properties": { "WSO1_ID": 1108399, "station": "engeren", "som_key": 3085, "Country": "Norway" }, "geometry": { "type": "Point", "coordinates": [ 12.076647492281705, 61.528894495893418 ] } },
{ "type": "Feature", "properties": { "WSO1_ID": 1108399, "station": "engeren", "som_key": 3160, "Country": "Norway" }, "geometry": { "type": "Point", "coordinates": [ 12.076647492281705, 61.528894495893418 ] } },
{ "type": "Feature", "properties": { "WSO1_ID": 1108399, "station": "engeren", "som_key": 3532, "Country": "Norway" }, "geometry": { "type": "Point", "coordinates": [ 12.076647492281705, 61.528894495893418 ] } },
{ "type": "Feature", "properties": { "WSO1_ID": 1108399, "station": "engeren", "som_key": 3235, "Country": "Norway" }, "geometry": { "type": "Point", "coordinates": [ 12.076647492281705, 61.528894495893418 ] } },
{ "type": "Feature", "properties": { "WSO1_ID": 1114500, "station": "etna", "som_key": 3084, "Country": "Norway" }, "geometry": { "type": "Point", "coordinates": [ 9.626174296595416, 60.951901765438492 ] } },
{ "type": "Feature", "properties": { "WSO1_ID": 1114500, "station": "etna", "som_key": 3159, "Country": "Norway" }, "geometry": { "type": "Point", "coordinates": [ 9.626174296595416, 60.951901765438492 ] } },
{ "type": "Feature", "properties": { "WSO1_ID": 1100000, "station": "fetvatn", "som_key": 3771, "Country": "Norway" }, "geometry": { "type": "Point", "coordinates": [ 6.592887563764099, 62.332500476372481 ] } },
{ "type": "Feature", "properties": { "WSO1_ID": 1127081, "station": "fiskum", "som_key": 1741, "Country": "Norway" }, "geometry": { "type": "Point", "coordinates": [ 9.790200649753713, 59.697212295959517 ] } },
{ "type": "Feature", "properties": { "WSO1_ID": 1127081, "station": "fiskum", "som_key": 1890, "Country": "Norway" }, "geometry": { "type": "Point", "coordinates": [ 9.790200649753713, 59.697212295959517 ] } },
{ "type": "Feature", "properties": { "WSO1_ID": 1127081, "station": "fiskum", "som_key": 1891, "Country": "Norway" }, "geometry": { "type": "Point", "coordinates": [ 9.790200649753713, 59.697212295959517 ] } },
{ "type": "Feature", "properties": { "WSO1_ID": 1127081, "station": "fiskum", "som_key": 1816, "Country": "Norway" }, "geometry": { "type": "Point", "coordinates": [ 9.790200649753713, 59.697212295959517 ] } },
{ "type": "Feature", "properties": { "WSO1_ID": 1127081, "station": "fiskum", "som_key": 1966, "Country": "Norway" }, "geometry": { "type": "Point", "coordinates": [ 9.790200649753713, 59.697212295959517 ] } },
{ "type": "Feature", "properties": { "WSO1_ID": 1127081, "station": "fiskum", "som_key": 1815, "Country": "Norway" }, "geometry": { "type": "Point", "coordinates": [ 9.790200649753713, 59.697212295959517 ] } },
{ "type": "Feature", "properties": { "WSO1_ID": 1115020, "station": "fura", "som_key": 2264, "Country": "Norway" }, "geometry": { "type": "Point", "coordinates": [ 11.324956793635691, 60.884835202957667 ] } },
{ "type": "Feature", "properties": { "WSO1_ID": 1115020, "station": "fura", "som_key": 2265, "Country": "Norway" }, "geometry": { "type": "Point", "coordinates": [ 11.324956793635691, 60.884835202957667 ] } },
{ "type": "Feature", "properties": { "WSO1_ID": 1094063, "station": "gaulfoss", "som_key": 3234, "Country": "Norway" }, "geometry": { "type": "Point", "coordinates": [ 10.229018429870312, 63.108479071410194 ] } },
{ "type": "Feature", "properties": { "WSO1_ID": 1094063, "station": "gaulfoss", "som_key": 3159, "Country": "Norway" }, "geometry": { "type": "Point", "coordinates": [ 10.229018429870312, 63.108479071410194 ] } },
{ "type": "Feature", "properties": { "WSO1_ID": 1094063, "station": "gaulfoss", "som_key": 3309, "Country": "Norway" }, "geometry": { "type": "Point", "coordinates": [ 10.229018429870312, 63.108479071410194 ] } },
{ "type": "Feature", "properties": { "WSO1_ID": 1094063, "station": "gaulfoss", "som_key": 3383, "Country": "Norway" }, "geometry": { "type": "Point", "coordinates": [ 10.229018429870312, 63.108479071410194 ] } },
{ "type": "Feature", "properties": { "WSO1_ID": 1094063, "station": "gaulfoss", "som_key": 3084, "Country": "Norway" }, "geometry": { "type": "Point", "coordinates": [ 10.229018429870312, 63.108479071410194 ] } },
{ "type": "Feature", "properties": { "WSO1_ID": 1133359, "station": "gjerstad", "som_key": 1816, "Country": "Norway" }, "geometry": { "type": "Point", "coordinates": [ 9.033271991389887, 58.88360533735554 ] } },
{ "type": "Feature", "properties": { "WSO1_ID": 1133359, "station": "gjerstad", "som_key": 1966, "Country": "Norway" }, "geometry": { "type": "Point", "coordinates": [ 9.033271991389887, 58.88360533735554 ] } },
{ "type": "Feature", "properties": { "WSO1_ID": 1133359, "station": "gjerstad", "som_key": 1890, "Country": "Norway" }, "geometry": { "type": "Point", "coordinates": [ 9.033271991389887, 58.88360533735554 ] } },
{ "type": "Feature", "properties": { "WSO1_ID": 1133359, "station": "gjerstad", "som_key": 1815, "Country": "Norway" }, "geometry": { "type": "Point", "coordinates": [ 9.033271991389887, 58.88360533735554 ] } },
{ "type": "Feature", "properties": { "WSO1_ID": 1133359, "station": "gjerstad", "som_key": 1891, "Country": "Norway" }, "geometry": { "type": "Point", "coordinates": [ 9.033271991389887, 58.88360533735554 ] } },
{ "type": "Feature", "properties": { "WSO1_ID": 1133359, "station": "gjerstad", "som_key": 1967, "Country": "Norway" }, "geometry": { "type": "Point", "coordinates": [ 9.033271991389887, 58.88360533735554 ] } },
{ "type": "Feature", "properties": { "WSO1_ID": 1133359, "station": "gjerstad", "som_key": 1889, "Country": "Norway" }, "geometry": { "type": "Point", "coordinates": [ 9.033271991389887, 58.88360533735554 ] } },
{ "type": "Feature", "properties": { "WSO1_ID": 1125814, "station": "gjuvaa", "som_key": 2707, "Country": "Norway" }, "geometry": { "type": "Point", "coordinates": [ 8.794497962945382, 59.755175117480071 ] } },
{ "type": "Feature", "properties": { "WSO1_ID": 1125814, "station": "gjuvaa", "som_key": 2708, "Country": "Norway" }, "geometry": { "type": "Point", "coordinates": [ 8.794497962945382, 59.755175117480071 ] } },
{ "type": "Feature", "properties": { "WSO1_ID": 1125814, "station": "gjuvaa", "som_key": 3396, "Country": "Norway" }, "geometry": { "type": "Point", "coordinates": [ 8.794497962945382, 59.755175117480071 ] } },
{ "type": "Feature", "properties": { "WSO1_ID": 1131260, "station": "gjuvvatn", "som_key": 4057, "Country": "Norway" }, "geometry": { "type": "Point", "coordinates": [ 7.214804687413238, 59.159174407668793 ] } },
{ "type": "Feature", "properties": { "WSO1_ID": 1131260, "station": "gjuvvatn", "som_key": 4281, "Country": "Norway" }, "geometry": { "type": "Point", "coordinates": [ 7.214804687413238, 59.159174407668793 ] } },
{ "type": "Feature", "properties": { "WSO1_ID": 1131260, "station": "gjuvvatn", "som_key": 3983, "Country": "Norway" }, "geometry": { "type": "Point", "coordinates": [ 7.214804687413238, 59.159174407668793 ] } },
{ "type": "Feature", "properties": { "WSO1_ID": 1131260, "station": "gjuvvatn", "som_key": 4132, "Country": "Norway" }, "geometry": { "type": "Point", "coordinates": [ 7.214804687413238, 59.159174407668793 ] } },
{ "type": "Feature", "properties": { "WSO1_ID": 1131260, "station": "gjuvvatn", "som_key": 3692, "Country": "Norway" }, "geometry": { "type": "Point", "coordinates": [ 7.214804687413238, 59.159174407668793 ] } },
{ "type": "Feature", "properties": { "WSO1_ID": 1131260, "station": "gjuvvatn", "som_key": 3908, "Country": "Norway" }, "geometry": { "type": "Point", "coordinates": [ 7.214804687413238, 59.159174407668793 ] } },
{ "type": "Feature", "properties": { "WSO1_ID": 1131260, "station": "gjuvvatn", "som_key": 4206, "Country": "Norway" }, "geometry": { "type": "Point", "coordinates": [ 7.214804687413238, 59.159174407668793 ] } },
{ "type": "Feature", "properties": { "WSO1_ID": 1131260, "station": "gjuvvatn", "som_key": 3693, "Country": "Norway" }, "geometry": { "type": "Point", "coordinates": [ 7.214804687413238, 59.159174407668793 ] } },
{ "type": "Feature", "properties": { "WSO1_ID": 1131260, "station": "gjuvvatn", "som_key": 4431, "Country": "Norway" }, "geometry": { "type": "Point", "coordinates": [ 7.214804687413238, 59.159174407668793 ] } },
{ "type": "Feature", "properties": { "WSO1_ID": 1131260, "station": "gjuvvatn", "som_key": 3834, "Country": "Norway" }, "geometry": { "type": "Point", "coordinates": [ 7.214804687413238, 59.159174407668793 ] } },
{ "type": "Feature", "properties": { "WSO1_ID": 1125687, "station": "groset", "som_key": 2640, "Country": "Norway" }, "geometry": { "type": "Point", "coordinates": [ 8.320614848613561, 59.835548138187072 ] } },
{ "type": "Feature", "properties": { "WSO1_ID": 1125687, "station": "groset", "som_key": 4054, "Country": "Norway" }, "geometry": { "type": "Point", "coordinates": [ 8.320614848613561, 59.835548138187072 ] } },
{ "type": "Feature", "properties": { "WSO1_ID": 1125687, "station": "groset", "som_key": 2641, "Country": "Norway" }, "geometry": { "type": "Point", "coordinates": [ 8.320614848613561, 59.835548138187072 ] } },
{ "type": "Feature", "properties": { "WSO1_ID": 1125687, "station": "groset", "som_key": 3680, "Country": "Norway" }, "geometry": { "type": "Point", "coordinates": [ 8.320614848613561, 59.835548138187072 ] } },
{ "type": "Feature", "properties": { "WSO1_ID": 1124272, "station": "gryta", "som_key": 1282, "Country": "Norway" }, "geometry": { "type": "Point", "coordinates": [ 10.800658347417535, 59.987228010302815 ] } },
{ "type": "Feature", "properties": { "WSO1_ID": 1124272, "station": "gryta", "som_key": 1281, "Country": "Norway" }, "geometry": { "type": "Point", "coordinates": [ 10.800658347417535, 59.987228010302815 ] } },
{ "type": "Feature", "properties": { "WSO1_ID": 1124272, "station": "gryta", "som_key": 1208, "Country": "Norway" }, "geometry": { "type": "Point", "coordinates": [ 10.800658347417535, 59.987228010302815 ] } },
{ "type": "Feature", "properties": { "WSO1_ID": 1124272, "station": "gryta", "som_key": 1283, "Country": "Norway" }, "geometry": { "type": "Point", "coordinates": [ 10.800658347417535, 59.987228010302815 ] } },
{ "type": "Feature", "properties": { "WSO1_ID": 1127994, "station": "hogfoss", "som_key": 1668, "Country": "Norway" }, "geometry": { "type": "Point", "coordinates": [ 10.856104202915837, 59.551610292412363 ] } },
{ "type": "Feature", "properties": { "WSO1_ID": 1127994, "station": "hogfoss", "som_key": 1669, "Country": "Norway" }, "geometry": { "type": "Point", "coordinates": [ 10.856104202915837, 59.551610292412363 ] } },
{ "type": "Feature", "properties": { "WSO1_ID": 1127994, "station": "hogfoss", "som_key": 1592, "Country": "Norway" }, "geometry": { "type": "Point", "coordinates": [ 10.856104202915837, 59.551610292412363 ] } },
{ "type": "Feature", "properties": { "WSO1_ID": 1127994, "station": "hogfoss", "som_key": 1593, "Country": "Norway" }, "geometry": { "type": "Point", "coordinates": [ 10.856104202915837, 59.551610292412363 ] } },
{ "type": "Feature", "properties": { "WSO1_ID": 1127994, "station": "hogfoss", "som_key": 1744, "Country": "Norway" }, "geometry": { "type": "Point", "coordinates": [ 10.856104202915837, 59.551610292412363 ] } },
{ "type": "Feature", "properties": { "WSO1_ID": 1091742, "station": "hoggaas_bru", "som_key": 3307, "Country": "Norway" }, "geometry": { "type": "Point", "coordinates": [ 11.358312417602741, 63.49292278178325 ] } },
{ "type": "Feature", "properties": { "WSO1_ID": 1091742, "station": "hoggaas_bru", "som_key": 3232, "Country": "Norway" }, "geometry": { "type": "Point", "coordinates": [ 11.358312417602741, 63.49292278178325 ] } },
{ "type": "Feature", "properties": { "WSO1_ID": 1091742, "station": "hoggaas_bru", "som_key": 3157, "Country": "Norway" }, "geometry": { "type": "Point", "coordinates": [ 11.358312417602741, 63.49292278178325 ] } },
{ "type": "Feature", "properties": { "WSO1_ID": 1091742, "station": "hoggaas_bru", "som_key": 3382, "Country": "Norway" }, "geometry": { "type": "Point", "coordinates": [ 11.358312417602741, 63.49292278178325 ] } },
{ "type": "Feature", "properties": { "WSO1_ID": 1120067, "station": "holen", "som_key": 4059, "Country": "Norway" }, "geometry": { "type": "Point", "coordinates": [ 6.746254909050126, 60.357383555818629 ] } },
{ "type": "Feature", "properties": { "WSO1_ID": 1120067, "station": "holen", "som_key": 4134, "Country": "Norway" }, "geometry": { "type": "Point", "coordinates": [ 6.746254909050126, 60.357383555818629 ] } },
{ "type": "Feature", "properties": { "WSO1_ID": 1120067, "station": "holen", "som_key": 3985, "Country": "Norway" }, "geometry": { "type": "Point", "coordinates": [ 6.746254909050126, 60.357383555818629 ] } },
{ "type": "Feature", "properties": { "WSO1_ID": 1120067, "station": "holen", "som_key": 4133, "Country": "Norway" }, "geometry": { "type": "Point", "coordinates": [ 6.746254909050126, 60.357383555818629 ] } },
{ "type": "Feature", "properties": { "WSO1_ID": 1120067, "station": "holen", "som_key": 3914, "Country": "Norway" }, "geometry": { "type": "Point", "coordinates": [ 6.746254909050126, 60.357383555818629 ] } },
{ "type": "Feature", "properties": { "WSO1_ID": 1120067, "station": "holen", "som_key": 4208, "Country": "Norway" }, "geometry": { "type": "Point", "coordinates": [ 6.746254909050126, 60.357383555818629 ] } },
{ "type": "Feature", "properties": { "WSO1_ID": 1120067, "station": "holen", "som_key": 3840, "Country": "Norway" }, "geometry": { "type": "Point", "coordinates": [ 6.746254909050126, 60.357383555818629 ] } },
{ "type": "Feature", "properties": { "WSO1_ID": 1120067, "station": "holen", "som_key": 4356, "Country": "Norway" }, "geometry": { "type": "Point", "coordinates": [ 6.746254909050126, 60.357383555818629 ] } },
{ "type": "Feature", "properties": { "WSO1_ID": 1120067, "station": "holen", "som_key": 4207, "Country": "Norway" }, "geometry": { "type": "Point", "coordinates": [ 6.746254909050126, 60.357383555818629 ] } },
{ "type": "Feature", "properties": { "WSO1_ID": 1120067, "station": "holen", "som_key": 4281, "Country": "Norway" }, "geometry": { "type": "Point", "coordinates": [ 6.746254909050126, 60.357383555818629 ] } },
{ "type": "Feature", "properties": { "WSO1_ID": 1120067, "station": "holen", "som_key": 4060, "Country": "Norway" }, "geometry": { "type": "Point", "coordinates": [ 6.746254909050126, 60.357383555818629 ] } },
{ "type": "Feature", "properties": { "WSO1_ID": 1120067, "station": "holen", "som_key": 3913, "Country": "Norway" }, "geometry": { "type": "Point", "coordinates": [ 6.746254909050126, 60.357383555818629 ] } },
{ "type": "Feature", "properties": { "WSO1_ID": 1120067, "station": "holen", "som_key": 3986, "Country": "Norway" }, "geometry": { "type": "Point", "coordinates": [ 6.746254909050126, 60.357383555818629 ] } },
{ "type": "Feature", "properties": { "WSO1_ID": 1120067, "station": "holen", "som_key": 3839, "Country": "Norway" }, "geometry": { "type": "Point", "coordinates": [ 6.746254909050126, 60.357383555818629 ] } },
{ "type": "Feature", "properties": { "WSO1_ID": 1116594, "station": "holervatn", "som_key": 3083, "Country": "Norway" }, "geometry": { "type": "Point", "coordinates": [ 9.458989847317179, 60.709622483367632 ] } },
{ "type": "Feature", "properties": { "WSO1_ID": 1116594, "station": "holervatn", "som_key": 3158, "Country": "Norway" }, "geometry": { "type": "Point", "coordinates": [ 9.458989847317179, 60.709622483367632 ] } },
{ "type": "Feature", "properties": { "WSO1_ID": 1129186, "station": "horte", "som_key": 1057, "Country": "Norway" }, "geometry": { "type": "Point", "coordinates": [ 9.13830922141549, 59.433084332396334 ] } },
{ "type": "Feature", "properties": { "WSO1_ID": 1129186, "station": "horte", "som_key": 3322, "Country": "Norway" }, "geometry": { "type": "Point", "coordinates": [ 9.13830922141549, 59.433084332396334 ] } },
{ "type": "Feature", "properties": { "WSO1_ID": 1108058, "station": "hovefoss", "som_key": 3625, "Country": "Norway" }, "geometry": { "type": "Point", "coordinates": [ 5.752137702706524, 61.532789808608939 ] } },
{ "type": "Feature", "properties": { "WSO1_ID": 1108058, "station": "hovefoss", "som_key": 3550, "Country": "Norway" }, "geometry": { "type": "Point", "coordinates": [ 5.752137702706524, 61.532789808608939 ] } },
{ "type": "Feature", "properties": { "WSO1_ID": 1108058, "station": "hovefoss", "som_key": 3551, "Country": "Norway" }, "geometry": { "type": "Point", "coordinates": [ 5.752137702706524, 61.532789808608939 ] } },
{ "type": "Feature", "properties": { "WSO1_ID": 1108058, "station": "hovefoss", "som_key": 3392, "Country": "Norway" }, "geometry": { "type": "Point", "coordinates": [ 5.752137702706524, 61.532789808608939 ] } },
{ "type": "Feature", "properties": { "WSO1_ID": 1108058, "station": "hovefoss", "som_key": 3318, "Country": "Norway" }, "geometry": { "type": "Point", "coordinates": [ 5.752137702706524, 61.532789808608939 ] } },
{ "type": "Feature", "properties": { "WSO1_ID": 1132705, "station": "jogla", "som_key": 4133, "Country": "Norway" }, "geometry": { "type": "Point", "coordinates": [ 6.934778379432581, 58.957490099440697 ] } },
{ "type": "Feature", "properties": { "WSO1_ID": 1132705, "station": "jogla", "som_key": 3839, "Country": "Norway" }, "geometry": { "type": "Point", "coordinates": [ 6.934778379432581, 58.957490099440697 ] } },
{ "type": "Feature", "properties": { "WSO1_ID": 1132705, "station": "jogla", "som_key": 4059, "Country": "Norway" }, "geometry": { "type": "Point", "coordinates": [ 6.934778379432581, 58.957490099440697 ] } },
{ "type": "Feature", "properties": { "WSO1_ID": 1132705, "station": "jogla", "som_key": 3767, "Country": "Norway" }, "geometry": { "type": "Point", "coordinates": [ 6.934778379432581, 58.957490099440697 ] } },
{ "type": "Feature", "properties": { "WSO1_ID": 1132705, "station": "jogla", "som_key": 3764, "Country": "Norway" }, "geometry": { "type": "Point", "coordinates": [ 6.934778379432581, 58.957490099440697 ] } },
{ "type": "Feature", "properties": { "WSO1_ID": 1132705, "station": "jogla", "som_key": 4207, "Country": "Norway" }, "geometry": { "type": "Point", "coordinates": [ 6.934778379432581, 58.957490099440697 ] } },
{ "type": "Feature", "properties": { "WSO1_ID": 1132705, "station": "jogla", "som_key": 4058, "Country": "Norway" }, "geometry": { "type": "Point", "coordinates": [ 6.934778379432581, 58.957490099440697 ] } },
{ "type": "Feature", "properties": { "WSO1_ID": 1132705, "station": "jogla", "som_key": 3763, "Country": "Norway" }, "geometry": { "type": "Point", "coordinates": [ 6.934778379432581, 58.957490099440697 ] } },
{ "type": "Feature", "properties": { "WSO1_ID": 1132705, "station": "jogla", "som_key": 3765, "Country": "Norway" }, "geometry": { "type": "Point", "coordinates": [ 6.934778379432581, 58.957490099440697 ] } },
{ "type": "Feature", "properties": { "WSO1_ID": 1132705, "station": "jogla", "som_key": 3840, "Country": "Norway" }, "geometry": { "type": "Point", "coordinates": [ 6.934778379432581, 58.957490099440697 ] } },
{ "type": "Feature", "properties": { "WSO1_ID": 1132705, "station": "jogla", "som_key": 3984, "Country": "Norway" }, "geometry": { "type": "Point", "coordinates": [ 6.934778379432581, 58.957490099440697 ] } },
{ "type": "Feature", "properties": { "WSO1_ID": 1132705, "station": "jogla", "som_key": 4356, "Country": "Norway" }, "geometry": { "type": "Point", "coordinates": [ 6.934778379432581, 58.957490099440697 ] } },
{ "type": "Feature", "properties": { "WSO1_ID": 1132705, "station": "jogla", "som_key": 4208, "Country": "Norway" }, "geometry": { "type": "Point", "coordinates": [ 6.934778379432581, 58.957490099440697 ] } },
{ "type": "Feature", "properties": { "WSO1_ID": 1132705, "station": "jogla", "som_key": 4431, "Country": "Norway" }, "geometry": { "type": "Point", "coordinates": [ 6.934778379432581, 58.957490099440697 ] } },
{ "type": "Feature", "properties": { "WSO1_ID": 1132705, "station": "jogla", "som_key": 3838, "Country": "Norway" }, "geometry": { "type": "Point", "coordinates": [ 6.934778379432581, 58.957490099440697 ] } },
{ "type": "Feature", "properties": { "WSO1_ID": 1093069, "station": "kjelstad", "som_key": 3308, "Country": "Norway" }, "geometry": { "type": "Point", "coordinates": [ 11.131100096945296, 63.266167543442201 ] } },
{ "type": "Feature", "properties": { "WSO1_ID": 1093069, "station": "kjelstad", "som_key": 3158, "Country": "Norway" }, "geometry": { "type": "Point", "coordinates": [ 11.131100096945296, 63.266167543442201 ] } },
{ "type": "Feature", "properties": { "WSO1_ID": 1093069, "station": "kjelstad", "som_key": 3233, "Country": "Norway" }, "geometry": { "type": "Point", "coordinates": [ 11.131100096945296, 63.266167543442201 ] } },
{ "type": "Feature", "properties": { "WSO1_ID": 1093069, "station": "kjelstad", "som_key": 3382, "Country": "Norway" }, "geometry": { "type": "Point", "coordinates": [ 11.131100096945296, 63.266167543442201 ] } },
{ "type": "Feature", "properties": { "WSO1_ID": 1093069, "station": "kjelstad", "som_key": 3083, "Country": "Norway" }, "geometry": { "type": "Point", "coordinates": [ 11.131100096945296, 63.266167543442201 ] } },
{ "type": "Feature", "properties": { "WSO1_ID": 1122456, "station": "kraakfoss", "som_key": 1665, "Country": "Norway" }, "geometry": { "type": "Point", "coordinates": [ 11.080103751309803, 60.133445681311855 ] } },
{ "type": "Feature", "properties": { "WSO1_ID": 1122456, "station": "kraakfoss", "som_key": 1818, "Country": "Norway" }, "geometry": { "type": "Point", "coordinates": [ 11.080103751309803, 60.133445681311855 ] } },
{ "type": "Feature", "properties": { "WSO1_ID": 1122456, "station": "kraakfoss", "som_key": 1893, "Country": "Norway" }, "geometry": { "type": "Point", "coordinates": [ 11.080103751309803, 60.133445681311855 ] } },
{ "type": "Feature", "properties": { "WSO1_ID": 1122456, "station": "kraakfoss", "som_key": 1815, "Country": "Norway" }, "geometry": { "type": "Point", "coordinates": [ 11.080103751309803, 60.133445681311855 ] } },
{ "type": "Feature", "properties": { "WSO1_ID": 1122456, "station": "kraakfoss", "som_key": 1967, "Country": "Norway" }, "geometry": { "type": "Point", "coordinates": [ 11.080103751309803, 60.133445681311855 ] } },
{ "type": "Feature", "properties": { "WSO1_ID": 1122456, "station": "kraakfoss", "som_key": 1666, "Country": "Norway" }, "geometry": { "type": "Point", "coordinates": [ 11.080103751309803, 60.133445681311855 ] } },
{ "type": "Feature", "properties": { "WSO1_ID": 1122456, "station": "kraakfoss", "som_key": 1590, "Country": "Norway" }, "geometry": { "type": "Point", "coordinates": [ 11.080103751309803, 60.133445681311855 ] } },
{ "type": "Feature", "properties": { "WSO1_ID": 1122456, "station": "kraakfoss", "som_key": 1741, "Country": "Norway" }, "geometry": { "type": "Point", "coordinates": [ 11.080103751309803, 60.133445681311855 ] } },
{ "type": "Feature", "properties": { "WSO1_ID": 1122456, "station": "kraakfoss", "som_key": 1892, "Country": "Norway" }, "geometry": { "type": "Point", "coordinates": [ 11.080103751309803, 60.133445681311855 ] } },
{ "type": "Feature", "properties": { "WSO1_ID": 1122456, "station": "kraakfoss", "som_key": 1740, "Country": "Norway" }, "geometry": { "type": "Point", "coordinates": [ 11.080103751309803, 60.133445681311855 ] } },
{ "type": "Feature", "properties": { "WSO1_ID": 1089991, "station": "krinsvatn", "som_key": 3616, "Country": "Norway" }, "geometry": { "type": "Point", "coordinates": [ 10.230822327992033, 63.801764773238084 ] } },
{ "type": "Feature", "properties": { "WSO1_ID": 1089991, "station": "krinsvatn", "som_key": 3461, "Country": "Norway" }, "geometry": { "type": "Point", "coordinates": [ 10.230822327992033, 63.801764773238084 ] } },
{ "type": "Feature", "properties": { "WSO1_ID": 1089991, "station": "krinsvatn", "som_key": 3535, "Country": "Norway" }, "geometry": { "type": "Point", "coordinates": [ 10.230822327992033, 63.801764773238084 ] } },
{ "type": "Feature", "properties": { "WSO1_ID": 1089991, "station": "krinsvatn", "som_key": 3683, "Country": "Norway" }, "geometry": { "type": "Point", "coordinates": [ 10.230822327992033, 63.801764773238084 ] } },
{ "type": "Feature", "properties": { "WSO1_ID": 1089991, "station": "krinsvatn", "som_key": 3832, "Country": "Norway" }, "geometry": { "type": "Point", "coordinates": [ 10.230822327992033, 63.801764773238084 ] } },
{ "type": "Feature", "properties": { "WSO1_ID": 1089991, "station": "krinsvatn", "som_key": 3609, "Country": "Norway" }, "geometry": { "type": "Point", "coordinates": [ 10.230822327992033, 63.801764773238084 ] } },
{ "type": "Feature", "properties": { "WSO1_ID": 1089991, "station": "krinsvatn", "som_key": 3617, "Country": "Norway" }, "geometry": { "type": "Point", "coordinates": [ 10.230822327992033, 63.801764773238084 ] } },
{ "type": "Feature", "properties": { "WSO1_ID": 1089991, "station": "krinsvatn", "som_key": 4056, "Country": "Norway" }, "geometry": { "type": "Point", "coordinates": [ 10.230822327992033, 63.801764773238084 ] } },
{ "type": "Feature", "properties": { "WSO1_ID": 1089991, "station": "krinsvatn", "som_key": 4280, "Country": "Norway" }, "geometry": { "type": "Point", "coordinates": [ 10.230822327992033, 63.801764773238084 ] } },
{ "type": "Feature", "properties": { "WSO1_ID": 1117200, "station": "lena", "som_key": 2339, "Country": "Norway" }, "geometry": { "type": "Point", "coordinates": [ 10.811860183653469, 60.668517547206527 ] } },
{ "type": "Feature", "properties": { "WSO1_ID": 1117200, "station": "lena", "som_key": 2340, "Country": "Norway" }, "geometry": { "type": "Point", "coordinates": [ 10.811860183653469, 60.668517547206527 ] } },
{ "type": "Feature", "properties": { "WSO1_ID": 1117200, "station": "lena", "som_key": 2415, "Country": "Norway" }, "geometry": { "type": "Point", "coordinates": [ 10.811860183653469, 60.668517547206527 ] } },
{ "type": "Feature", "properties": { "WSO1_ID": 1117200, "station": "lena", "som_key": 2414, "Country": "Norway" }, "geometry": { "type": "Point", "coordinates": [ 10.811860183653469, 60.668517547206527 ] } },
{ "type": "Feature", "properties": { "WSO1_ID": 1127626, "station": "lislefj", "som_key": 3695, "Country": "Norway" }, "geometry": { "type": "Point", "coordinates": [ 7.419619067000048, 59.608831460878775 ] } },
{ "type": "Feature", "properties": { "WSO1_ID": 1127626, "station": "lislefj", "som_key": 4431, "Country": "Norway" }, "geometry": { "type": "Point", "coordinates": [ 7.419619067000048, 59.608831460878775 ] } },
{ "type": "Feature", "properties": { "WSO1_ID": 1127626, "station": "lislefj", "som_key": 4132, "Country": "Norway" }, "geometry": { "type": "Point", "coordinates": [ 7.419619067000048, 59.608831460878775 ] } },
{ "type": "Feature", "properties": { "WSO1_ID": 1127626, "station": "lislefj", "som_key": 4206, "Country": "Norway" }, "geometry": { "type": "Point", "coordinates": [ 7.419619067000048, 59.608831460878775 ] } },
{ "type": "Feature", "properties": { "WSO1_ID": 1127626, "station": "lislefj", "som_key": 4281, "Country": "Norway" }, "geometry": { "type": "Point", "coordinates": [ 7.419619067000048, 59.608831460878775 ] } },
{ "type": "Feature", "properties": { "WSO1_ID": 1127626, "station": "lislefj", "som_key": 3771, "Country": "Norway" }, "geometry": { "type": "Point", "coordinates": [ 7.419619067000048, 59.608831460878775 ] } },
{ "type": "Feature", "properties": { "WSO1_ID": 1127626, "station": "lislefj", "som_key": 4356, "Country": "Norway" }, "geometry": { "type": "Point", "coordinates": [ 7.419619067000048, 59.608831460878775 ] } },
{ "type": "Feature", "properties": { "WSO1_ID": 1127626, "station": "lislefj", "som_key": 4057, "Country": "Norway" }, "geometry": { "type": "Point", "coordinates": [ 7.419619067000048, 59.608831460878775 ] } },
{ "type": "Feature", "properties": { "WSO1_ID": 1104551, "station": "lovatn", "som_key": 4287, "Country": "Norway" }, "geometry": { "type": "Point", "coordinates": [ 6.889670310170478, 61.858693840385307 ] } },
{ "type": "Feature", "properties": { "WSO1_ID": 1104551, "station": "lovatn", "som_key": 4436, "Country": "Norway" }, "geometry": { "type": "Point", "coordinates": [ 6.889670310170478, 61.858693840385307 ] } },
{ "type": "Feature", "properties": { "WSO1_ID": 1104551, "station": "lovatn", "som_key": 4214, "Country": "Norway" }, "geometry": { "type": "Point", "coordinates": [ 6.889670310170478, 61.858693840385307 ] } },
{ "type": "Feature", "properties": { "WSO1_ID": 1104551, "station": "lovatn", "som_key": 4361, "Country": "Norway" }, "geometry": { "type": "Point", "coordinates": [ 6.889670310170478, 61.858693840385307 ] } },
{ "type": "Feature", "properties": { "WSO1_ID": 1104551, "station": "lovatn", "som_key": 4435, "Country": "Norway" }, "geometry": { "type": "Point", "coordinates": [ 6.889670310170478, 61.858693840385307 ] } },
{ "type": "Feature", "properties": { "WSO1_ID": 1080992, "station": "mevatn", "som_key": 3245, "Country": "Norway" }, "geometry": { "type": "Point", "coordinates": [ 12.538049247769532, 65.365533329110932 ] } },
{ "type": "Feature", "properties": { "WSO1_ID": 1080992, "station": "mevatn", "som_key": 3094, "Country": "Norway" }, "geometry": { "type": "Point", "coordinates": [ 12.538049247769532, 65.365533329110932 ] } },
{ "type": "Feature", "properties": { "WSO1_ID": 1080992, "station": "mevatn", "som_key": 3170, "Country": "Norway" }, "geometry": { "type": "Point", "coordinates": [ 12.538049247769532, 65.365533329110932 ] } },
{ "type": "Feature", "properties": { "WSO1_ID": 1080992, "station": "mevatn", "som_key": 3475, "Country": "Norway" }, "geometry": { "type": "Point", "coordinates": [ 12.538049247769532, 65.365533329110932 ] } },
{ "type": "Feature", "properties": { "WSO1_ID": 1080992, "station": "mevatn", "som_key": 3830, "Country": "Norway" }, "geometry": { "type": "Point", "coordinates": [ 12.538049247769532, 65.365533329110932 ] } },
{ "type": "Feature", "properties": { "WSO1_ID": 1080992, "station": "mevatn", "som_key": 3244, "Country": "Norway" }, "geometry": { "type": "Point", "coordinates": [ 12.538049247769532, 65.365533329110932 ] } },
{ "type": "Feature", "properties": { "WSO1_ID": 1080992, "station": "mevatn", "som_key": 3400, "Country": "Norway" }, "geometry": { "type": "Point", "coordinates": [ 12.538049247769532, 65.365533329110932 ] } },
{ "type": "Feature", "properties": { "WSO1_ID": 1080992, "station": "mevatn", "som_key": 4430, "Country": "Norway" }, "geometry": { "type": "Point", "coordinates": [ 12.538049247769532, 65.365533329110932 ] } },
{ "type": "Feature", "properties": { "WSO1_ID": 1135441, "station": "myglevatn", "som_key": 2042, "Country": "Norway" }, "geometry": { "type": "Point", "coordinates": [ 7.584991340634148, 58.445886508642204 ] } },
{ "type": "Feature", "properties": { "WSO1_ID": 1135441, "station": "myglevatn", "som_key": 2566, "Country": "Norway" }, "geometry": { "type": "Point", "coordinates": [ 7.584991340634148, 58.445886508642204 ] } },
{ "type": "Feature", "properties": { "WSO1_ID": 1135441, "station": "myglevatn", "som_key": 3325, "Country": "Norway" }, "geometry": { "type": "Point", "coordinates": [ 7.584991340634148, 58.445886508642204 ] } },
{ "type": "Feature", "properties": { "WSO1_ID": 1115571, "station": "myrkdalsv", "som_key": 4208, "Country": "Norway" }, "geometry": { "type": "Point", "coordinates": [ 6.501574047700634, 60.799210251429074 ] } },
{ "type": "Feature", "properties": { "WSO1_ID": 1115571, "station": "myrkdalsv", "som_key": 4133, "Country": "Norway" }, "geometry": { "type": "Point", "coordinates": [ 6.501574047700634, 60.799210251429074 ] } },
{ "type": "Feature", "properties": { "WSO1_ID": 1115571, "station": "myrkdalsv", "som_key": 3842, "Country": "Norway" }, "geometry": { "type": "Point", "coordinates": [ 6.501574047700634, 60.799210251429074 ] } },
{ "type": "Feature", "properties": { "WSO1_ID": 1115571, "station": "myrkdalsv", "som_key": 3841, "Country": "Norway" }, "geometry": { "type": "Point", "coordinates": [ 6.501574047700634, 60.799210251429074 ] } },
{ "type": "Feature", "properties": { "WSO1_ID": 1115571, "station": "myrkdalsv", "som_key": 3766, "Country": "Norway" }, "geometry": { "type": "Point", "coordinates": [ 6.501574047700634, 60.799210251429074 ] } },
{ "type": "Feature", "properties": { "WSO1_ID": 1115571, "station": "myrkdalsv", "som_key": 4207, "Country": "Norway" }, "geometry": { "type": "Point", "coordinates": [ 6.501574047700634, 60.799210251429074 ] } },
{ "type": "Feature", "properties": { "WSO1_ID": 1115571, "station": "myrkdalsv", "som_key": 3767, "Country": "Norway" }, "geometry": { "type": "Point", "coordinates": [ 6.501574047700634, 60.799210251429074 ] } },
{ "type": "Feature", "properties": { "WSO1_ID": 1115571, "station": "myrkdalsv", "som_key": 3840, "Country": "Norway" }, "geometry": { "type": "Point", "coordinates": [ 6.501574047700634, 60.799210251429074 ] } },
{ "type": "Feature", "properties": { "WSO1_ID": 1115571, "station": "myrkdalsv", "som_key": 4431, "Country": "Norway" }, "geometry": { "type": "Point", "coordinates": [ 6.501574047700634, 60.799210251429074 ] } },
{ "type": "Feature", "properties": { "WSO1_ID": 1115571, "station": "myrkdalsv", "som_key": 4282, "Country": "Norway" }, "geometry": { "type": "Point", "coordinates": [ 6.501574047700634, 60.799210251429074 ] } },
{ "type": "Feature", "properties": { "WSO1_ID": 1099495, "station": "narsjo", "som_key": 3086, "Country": "Norway" }, "geometry": { "type": "Point", "coordinates": [ 11.478783492100137, 62.361318227114261 ] } },
{ "type": "Feature", "properties": { "WSO1_ID": 1099495, "station": "narsjo", "som_key": 3161, "Country": "Norway" }, "geometry": { "type": "Point", "coordinates": [ 11.478783492100137, 62.361318227114261 ] } },
{ "type": "Feature", "properties": { "WSO1_ID": 1099495, "station": "narsjo", "som_key": 3682, "Country": "Norway" }, "geometry": { "type": "Point", "coordinates": [ 11.478783492100137, 62.361318227114261 ] } },
{ "type": "Feature", "properties": { "WSO1_ID": 1111079, "station": "nautsundv", "som_key": 3246, "Country": "Norway" }, "geometry": { "type": "Point", "coordinates": [ 5.385350174252196, 61.252895700490122 ] } },
{ "type": "Feature", "properties": { "WSO1_ID": 1111079, "station": "nautsundv", "som_key": 3400, "Country": "Norway" }, "geometry": { "type": "Point", "coordinates": [ 5.385350174252196, 61.252895700490122 ] } },
{ "type": "Feature", "properties": { "WSO1_ID": 1111079, "station": "nautsundv", "som_key": 3324, "Country": "Norway" }, "geometry": { "type": "Point", "coordinates": [ 5.385350174252196, 61.252895700490122 ] } },
{ "type": "Feature", "properties": { "WSO1_ID": 1111079, "station": "nautsundv", "som_key": 3475, "Country": "Norway" }, "geometry": { "type": "Point", "coordinates": [ 5.385350174252196, 61.252895700490122 ] } },
{ "type": "Feature", "properties": { "WSO1_ID": 1111079, "station": "nautsundv", "som_key": 3325, "Country": "Norway" }, "geometry": { "type": "Point", "coordinates": [ 5.385350174252196, 61.252895700490122 ] } },
{ "type": "Feature", "properties": { "WSO1_ID": 1111079, "station": "nautsundv", "som_key": 3245, "Country": "Norway" }, "geometry": { "type": "Point", "coordinates": [ 5.385350174252196, 61.252895700490122 ] } },
{ "type": "Feature", "properties": { "WSO1_ID": 1112037, "station": "nessedalselv", "som_key": 3771, "Country": "Norway" }, "geometry": { "type": "Point", "coordinates": [ 6.278384881684708, 61.159870786261152 ] } },
{ "type": "Feature", "properties": { "WSO1_ID": 1112037, "station": "nessedalselv", "som_key": 3772, "Country": "Norway" }, "geometry": { "type": "Point", "coordinates": [ 6.278384881684708, 61.159870786261152 ] } },
{ "type": "Feature", "properties": { "WSO1_ID": 1106911, "station": "nigardsbrev", "som_key": 4438, "Country": "Norway" }, "geometry": { "type": "Point", "coordinates": [ 7.241905556729717, 61.666554243345011 ] } },
{ "type": "Feature", "properties": { "WSO1_ID": 1106911, "station": "nigardsbrev", "som_key": 4439, "Country": "Norway" }, "geometry": { "type": "Point", "coordinates": [ 7.241905556729717, 61.666554243345011 ] } },
{ "type": "Feature", "properties": { "WSO1_ID": 1102578, "station": "oye", "som_key": 3992, "Country": "Norway" }, "geometry": { "type": "Point", "coordinates": [ 6.931252182429458, 62.068180136568856 ] } },
{ "type": "Feature", "properties": { "WSO1_ID": 1102578, "station": "oye", "som_key": 4358, "Country": "Norway" }, "geometry": { "type": "Point", "coordinates": [ 6.931252182429458, 62.068180136568856 ] } },
{ "type": "Feature", "properties": { "WSO1_ID": 1102578, "station": "oye", "som_key": 4432, "Country": "Norway" }, "geometry": { "type": "Point", "coordinates": [ 6.931252182429458, 62.068180136568856 ] } },
{ "type": "Feature", "properties": { "WSO1_ID": 1102578, "station": "oye", "som_key": 4357, "Country": "Norway" }, "geometry": { "type": "Point", "coordinates": [ 6.931252182429458, 62.068180136568856 ] } },
{ "type": "Feature", "properties": { "WSO1_ID": 1102578, "station": "oye", "som_key": 3991, "Country": "Norway" }, "geometry": { "type": "Point", "coordinates": [ 6.931252182429458, 62.068180136568856 ] } },
{ "type": "Feature", "properties": { "WSO1_ID": 1102578, "station": "oye", "som_key": 4283, "Country": "Norway" }, "geometry": { "type": "Point", "coordinates": [ 6.931252182429458, 62.068180136568856 ] } },
{ "type": "Feature", "properties": { "WSO1_ID": 1102578, "station": "oye", "som_key": 3993, "Country": "Norway" }, "geometry": { "type": "Point", "coordinates": [ 6.931252182429458, 62.068180136568856 ] } },
{ "type": "Feature", "properties": { "WSO1_ID": 1087187, "station": "oyungen", "som_key": 3382, "Country": "Norway" }, "geometry": { "type": "Point", "coordinates": [ 11.081687041778979, 64.243779065285437 ] } },
{ "type": "Feature", "properties": { "WSO1_ID": 1087187, "station": "oyungen", "som_key": 3307, "Country": "Norway" }, "geometry": { "type": "Point", "coordinates": [ 11.081687041778979, 64.243779065285437 ] } },
{ "type": "Feature", "properties": { "WSO1_ID": 1087187, "station": "oyungen", "som_key": 3157, "Country": "Norway" }, "geometry": { "type": "Point", "coordinates": [ 11.081687041778979, 64.243779065285437 ] } },
{ "type": "Feature", "properties": { "WSO1_ID": 1087187, "station": "oyungen", "som_key": 3457, "Country": "Norway" }, "geometry": { "type": "Point", "coordinates": [ 11.081687041778979, 64.243779065285437 ] } },
{ "type": "Feature", "properties": { "WSO1_ID": 1087187, "station": "oyungen", "som_key": 3156, "Country": "Norway" }, "geometry": { "type": "Point", "coordinates": [ 11.081687041778979, 64.243779065285437 ] } },
{ "type": "Feature", "properties": { "WSO1_ID": 1087187, "station": "oyungen", "som_key": 3082, "Country": "Norway" }, "geometry": { "type": "Point", "coordinates": [ 11.081687041778979, 64.243779065285437 ] } },
{ "type": "Feature", "properties": { "WSO1_ID": 1087187, "station": "oyungen", "som_key": 3232, "Country": "Norway" }, "geometry": { "type": "Point", "coordinates": [ 11.081687041778979, 64.243779065285437 ] } },
{ "type": "Feature", "properties": { "WSO1_ID": 1087187, "station": "oyungen", "som_key": 3081, "Country": "Norway" }, "geometry": { "type": "Point", "coordinates": [ 11.081687041778979, 64.243779065285437 ] } },
{ "type": "Feature", "properties": { "WSO1_ID": 1087187, "station": "oyungen", "som_key": 3007, "Country": "Norway" }, "geometry": { "type": "Point", "coordinates": [ 11.081687041778979, 64.243779065285437 ] } },
{ "type": "Feature", "properties": { "WSO1_ID": 1094865, "station": "rinna", "som_key": 3690, "Country": "Norway" }, "geometry": { "type": "Point", "coordinates": [ 9.4070967221662, 62.984952812609244 ] } },
{ "type": "Feature", "properties": { "WSO1_ID": 1094865, "station": "rinna", "som_key": 3689, "Country": "Norway" }, "geometry": { "type": "Point", "coordinates": [ 9.4070967221662, 62.984952812609244 ] } },
{ "type": "Feature", "properties": { "WSO1_ID": 1094865, "station": "rinna", "som_key": 3908, "Country": "Norway" }, "geometry": { "type": "Point", "coordinates": [ 9.4070967221662, 62.984952812609244 ] } },
{ "type": "Feature", "properties": { "WSO1_ID": 1094865, "station": "rinna", "som_key": 4280, "Country": "Norway" }, "geometry": { "type": "Point", "coordinates": [ 9.4070967221662, 62.984952812609244 ] } },
{ "type": "Feature", "properties": { "WSO1_ID": 1094865, "station": "rinna", "som_key": 4057, "Country": "Norway" }, "geometry": { "type": "Point", "coordinates": [ 9.4070967221662, 62.984952812609244 ] } },
{ "type": "Feature", "properties": { "WSO1_ID": 1094865, "station": "rinna", "som_key": 4132, "Country": "Norway" }, "geometry": { "type": "Point", "coordinates": [ 9.4070967221662, 62.984952812609244 ] } },
{ "type": "Feature", "properties": { "WSO1_ID": 1094865, "station": "rinna", "som_key": 3614, "Country": "Norway" }, "geometry": { "type": "Point", "coordinates": [ 9.4070967221662, 62.984952812609244 ] } },
{ "type": "Feature", "properties": { "WSO1_ID": 1094865, "station": "rinna", "som_key": 3983, "Country": "Norway" }, "geometry": { "type": "Point", "coordinates": [ 9.4070967221662, 62.984952812609244 ] } },
{ "type": "Feature", "properties": { "WSO1_ID": 1094865, "station": "rinna", "som_key": 4206, "Country": "Norway" }, "geometry": { "type": "Point", "coordinates": [ 9.4070967221662, 62.984952812609244 ] } },
{ "type": "Feature", "properties": { "WSO1_ID": 1098572, "station": "risefoss", "som_key": 3985, "Country": "Norway" }, "geometry": { "type": "Point", "coordinates": [ 9.592639370462436, 62.511384241491307 ] } },
{ "type": "Feature", "properties": { "WSO1_ID": 1098572, "station": "risefoss", "som_key": 3836, "Country": "Norway" }, "geometry": { "type": "Point", "coordinates": [ 9.592639370462436, 62.511384241491307 ] } },
{ "type": "Feature", "properties": { "WSO1_ID": 1098572, "station": "risefoss", "som_key": 3837, "Country": "Norway" }, "geometry": { "type": "Point", "coordinates": [ 9.592639370462436, 62.511384241491307 ] } },
{ "type": "Feature", "properties": { "WSO1_ID": 1098572, "station": "risefoss", "som_key": 3911, "Country": "Norway" }, "geometry": { "type": "Point", "coordinates": [ 9.592639370462436, 62.511384241491307 ] } },
{ "type": "Feature", "properties": { "WSO1_ID": 1098572, "station": "risefoss", "som_key": 4206, "Country": "Norway" }, "geometry": { "type": "Point", "coordinates": [ 9.592639370462436, 62.511384241491307 ] } },
{ "type": "Feature", "properties": { "WSO1_ID": 1098572, "station": "risefoss", "som_key": 3762, "Country": "Norway" }, "geometry": { "type": "Point", "coordinates": [ 9.592639370462436, 62.511384241491307 ] } },
{ "type": "Feature", "properties": { "WSO1_ID": 1098572, "station": "risefoss", "som_key": 3986, "Country": "Norway" }, "geometry": { "type": "Point", "coordinates": [ 9.592639370462436, 62.511384241491307 ] } },
{ "type": "Feature", "properties": { "WSO1_ID": 1098572, "station": "risefoss", "som_key": 4280, "Country": "Norway" }, "geometry": { "type": "Point", "coordinates": [ 9.592639370462436, 62.511384241491307 ] } },
{ "type": "Feature", "properties": { "WSO1_ID": 1098572, "station": "risefoss", "som_key": 3984, "Country": "Norway" }, "geometry": { "type": "Point", "coordinates": [ 9.592639370462436, 62.511384241491307 ] } },
{ "type": "Feature", "properties": { "WSO1_ID": 1098572, "station": "risefoss", "som_key": 4059, "Country": "Norway" }, "geometry": { "type": "Point", "coordinates": [ 9.592639370462436, 62.511384241491307 ] } },
{ "type": "Feature", "properties": { "WSO1_ID": 1098572, "station": "risefoss", "som_key": 3910, "Country": "Norway" }, "geometry": { "type": "Point", "coordinates": [ 9.592639370462436, 62.511384241491307 ] } },
{ "type": "Feature", "properties": { "WSO1_ID": 1104941, "station": "rosten", "som_key": 3760, "Country": "Norway" }, "geometry": { "type": "Point", "coordinates": [ 9.404753500165997, 61.858568177394957 ] } },
{ "type": "Feature", "properties": { "WSO1_ID": 1104941, "station": "rosten", "som_key": 3761, "Country": "Norway" }, "geometry": { "type": "Point", "coordinates": [ 9.404753500165997, 61.858568177394957 ] } },
{ "type": "Feature", "properties": { "WSO1_ID": 1104941, "station": "rosten", "som_key": 3687, "Country": "Norway" }, "geometry": { "type": "Point", "coordinates": [ 9.404753500165997, 61.858568177394957 ] } },
{ "type": "Feature", "properties": { "WSO1_ID": 1104941, "station": "rosten", "som_key": 3908, "Country": "Norway" }, "geometry": { "type": "Point", "coordinates": [ 9.404753500165997, 61.858568177394957 ] } },
{ "type": "Feature", "properties": { "WSO1_ID": 1104941, "station": "rosten", "som_key": 3835, "Country": "Norway" }, "geometry": { "type": "Point", "coordinates": [ 9.404753500165997, 61.858568177394957 ] } },
{ "type": "Feature", "properties": { "WSO1_ID": 1104941, "station": "rosten", "som_key": 4056, "Country": "Norway" }, "geometry": { "type": "Point", "coordinates": [ 9.404753500165997, 61.858568177394957 ] } },
{ "type": "Feature", "properties": { "WSO1_ID": 1104941, "station": "rosten", "som_key": 3834, "Country": "Norway" }, "geometry": { "type": "Point", "coordinates": [ 9.404753500165997, 61.858568177394957 ] } },
{ "type": "Feature", "properties": { "WSO1_ID": 1120278, "station": "roykenes", "som_key": 3472, "Country": "Norway" }, "geometry": { "type": "Point", "coordinates": [ 5.441903149625666, 60.248812167134425 ] } },
{ "type": "Feature", "properties": { "WSO1_ID": 1120278, "station": "roykenes", "som_key": 3397, "Country": "Norway" }, "geometry": { "type": "Point", "coordinates": [ 5.441903149625666, 60.248812167134425 ] } },
{ "type": "Feature", "properties": { "WSO1_ID": 1120278, "station": "roykenes", "som_key": 3473, "Country": "Norway" }, "geometry": { "type": "Point", "coordinates": [ 5.441903149625666, 60.248812167134425 ] } },
{ "type": "Feature", "properties": { "WSO1_ID": 1120278, "station": "roykenes", "som_key": 3398, "Country": "Norway" }, "geometry": { "type": "Point", "coordinates": [ 5.441903149625666, 60.248812167134425 ] } },
{ "type": "Feature", "properties": { "WSO1_ID": 1123147, "station": "sandvenvatn", "som_key": 4358, "Country": "Norway" }, "geometry": { "type": "Point", "coordinates": [ 6.555300663339462, 60.053994029236456 ] } },
{ "type": "Feature", "properties": { "WSO1_ID": 1123147, "station": "sandvenvatn", "som_key": 4431, "Country": "Norway" }, "geometry": { "type": "Point", "coordinates": [ 6.555300663339462, 60.053994029236456 ] } },
{ "type": "Feature", "properties": { "WSO1_ID": 1123147, "station": "sandvenvatn", "som_key": 4284, "Country": "Norway" }, "geometry": { "type": "Point", "coordinates": [ 6.555300663339462, 60.053994029236456 ] } },
{ "type": "Feature", "properties": { "WSO1_ID": 1123147, "station": "sandvenvatn", "som_key": 4432, "Country": "Norway" }, "geometry": { "type": "Point", "coordinates": [ 6.555300663339462, 60.053994029236456 ] } },
{ "type": "Feature", "properties": { "WSO1_ID": 1123147, "station": "sandvenvatn", "som_key": 3917, "Country": "Norway" }, "geometry": { "type": "Point", "coordinates": [ 6.555300663339462, 60.053994029236456 ] } },
{ "type": "Feature", "properties": { "WSO1_ID": 1123147, "station": "sandvenvatn", "som_key": 3842, "Country": "Norway" }, "geometry": { "type": "Point", "coordinates": [ 6.555300663339462, 60.053994029236456 ] } },
{ "type": "Feature", "properties": { "WSO1_ID": 1123147, "station": "sandvenvatn", "som_key": 4210, "Country": "Norway" }, "geometry": { "type": "Point", "coordinates": [ 6.555300663339462, 60.053994029236456 ] } },
{ "type": "Feature", "properties": { "WSO1_ID": 1123147, "station": "sandvenvatn", "som_key": 4136, "Country": "Norway" }, "geometry": { "type": "Point", "coordinates": [ 6.555300663339462, 60.053994029236456 ] } },
{ "type": "Feature", "properties": { "WSO1_ID": 1123147, "station": "sandvenvatn", "som_key": 4283, "Country": "Norway" }, "geometry": { "type": "Point", "coordinates": [ 6.555300663339462, 60.053994029236456 ] } },
{ "type": "Feature", "properties": { "WSO1_ID": 1123147, "station": "sandvenvatn", "som_key": 3990, "Country": "Norway" }, "geometry": { "type": "Point", "coordinates": [ 6.555300663339462, 60.053994029236456 ] } },
{ "type": "Feature", "properties": { "WSO1_ID": 1123147, "station": "sandvenvatn", "som_key": 4209, "Country": "Norway" }, "geometry": { "type": "Point", "coordinates": [ 6.555300663339462, 60.053994029236456 ] } },
{ "type": "Feature", "properties": { "WSO1_ID": 1104807, "station": "skjerdalselv", "som_key": 4450, "Country": "Norway" }, "geometry": { "type": "Point", "coordinates": [ 5.935549653788289, 61.815639025930089 ] } },
{ "type": "Feature", "properties": { "WSO1_ID": 1104807, "station": "skjerdalselv", "som_key": 4375, "Country": "Norway" }, "geometry": { "type": "Point", "coordinates": [ 5.935549653788289, 61.815639025930089 ] } },
{ "type": "Feature", "properties": { "WSO1_ID": 1104807, "station": "skjerdalselv", "som_key": 4299, "Country": "Norway" }, "geometry": { "type": "Point", "coordinates": [ 5.935549653788289, 61.815639025930089 ] } },
{ "type": "Feature", "properties": { "WSO1_ID": 1110776, "station": "sogndalsv", "som_key": 3992, "Country": "Norway" }, "geometry": { "type": "Point", "coordinates": [ 7.006808220915129, 61.297838030086091 ] } },
{ "type": "Feature", "properties": { "WSO1_ID": 1110776, "station": "sogndalsv", "som_key": 3991, "Country": "Norway" }, "geometry": { "type": "Point", "coordinates": [ 7.006808220915129, 61.297838030086091 ] } },
{ "type": "Feature", "properties": { "WSO1_ID": 1110776, "station": "sogndalsv", "som_key": 3990, "Country": "Norway" }, "geometry": { "type": "Point", "coordinates": [ 7.006808220915129, 61.297838030086091 ] } },
{ "type": "Feature", "properties": { "WSO1_ID": 1110776, "station": "sogndalsv", "som_key": 4358, "Country": "Norway" }, "geometry": { "type": "Point", "coordinates": [ 7.006808220915129, 61.297838030086091 ] } },
{ "type": "Feature", "properties": { "WSO1_ID": 1136775, "station": "sogne", "som_key": 2040, "Country": "Norway" }, "geometry": { "type": "Point", "coordinates": [ 7.835108465469644, 58.090979894463857 ] } },
{ "type": "Feature", "properties": { "WSO1_ID": 1136775, "station": "sogne", "som_key": 2039, "Country": "Norway" }, "geometry": { "type": "Point", "coordinates": [ 7.835108465469644, 58.090979894463857 ] } },
{ "type": "Feature", "properties": { "WSO1_ID": 1136775, "station": "sogne", "som_key": 2041, "Country": "Norway" }, "geometry": { "type": "Point", "coordinates": [ 7.835108465469644, 58.090979894463857 ] } },
{ "type": "Feature", "properties": { "WSO1_ID": 1136775, "station": "sogne", "som_key": 3325, "Country": "Norway" }, "geometry": { "type": "Point", "coordinates": [ 7.835108465469644, 58.090979894463857 ] } },
{ "type": "Feature", "properties": { "WSO1_ID": 1126558, "station": "stordalsv", "som_key": 3692, "Country": "Norway" }, "geometry": { "type": "Point", "coordinates": [ 6.010889007224479, 59.682936461741448 ] } },
{ "type": "Feature", "properties": { "WSO1_ID": 1126558, "station": "stordalsv", "som_key": 3767, "Country": "Norway" }, "geometry": { "type": "Point", "coordinates": [ 6.010889007224479, 59.682936461741448 ] } },
{ "type": "Feature", "properties": { "WSO1_ID": 1126558, "station": "stordalsv", "som_key": 4281, "Country": "Norway" }, "geometry": { "type": "Point", "coordinates": [ 6.010889007224479, 59.682936461741448 ] } },
{ "type": "Feature", "properties": { "WSO1_ID": 1126558, "station": "stordalsv", "som_key": 4280, "Country": "Norway" }, "geometry": { "type": "Point", "coordinates": [ 6.010889007224479, 59.682936461741448 ] } },
{ "type": "Feature", "properties": { "WSO1_ID": 1126558, "station": "stordalsv", "som_key": 4356, "Country": "Norway" }, "geometry": { "type": "Point", "coordinates": [ 6.010889007224479, 59.682936461741448 ] } },
{ "type": "Feature", "properties": { "WSO1_ID": 1126558, "station": "stordalsv", "som_key": 4355, "Country": "Norway" }, "geometry": { "type": "Point", "coordinates": [ 6.010889007224479, 59.682936461741448 ] } },
{ "type": "Feature", "properties": { "WSO1_ID": 1115234, "station": "storeskar", "som_key": 4058, "Country": "Norway" }, "geometry": { "type": "Point", "coordinates": [ 8.332807525795543, 60.891720691094683 ] } },
{ "type": "Feature", "properties": { "WSO1_ID": 1115234, "station": "storeskar", "som_key": 3984, "Country": "Norway" }, "geometry": { "type": "Point", "coordinates": [ 8.332807525795543, 60.891720691094683 ] } },
{ "type": "Feature", "properties": { "WSO1_ID": 1115234, "station": "storeskar", "som_key": 3838, "Country": "Norway" }, "geometry": { "type": "Point", "coordinates": [ 8.332807525795543, 60.891720691094683 ] } },
{ "type": "Feature", "properties": { "WSO1_ID": 1115234, "station": "storeskar", "som_key": 3837, "Country": "Norway" }, "geometry": { "type": "Point", "coordinates": [ 8.332807525795543, 60.891720691094683 ] } },
{ "type": "Feature", "properties": { "WSO1_ID": 1115234, "station": "storeskar", "som_key": 4132, "Country": "Norway" }, "geometry": { "type": "Point", "coordinates": [ 8.332807525795543, 60.891720691094683 ] } },
{ "type": "Feature", "properties": { "WSO1_ID": 1115234, "station": "storeskar", "som_key": 3910, "Country": "Norway" }, "geometry": { "type": "Point", "coordinates": [ 8.332807525795543, 60.891720691094683 ] } },
{ "type": "Feature", "properties": { "WSO1_ID": 1115234, "station": "storeskar", "som_key": 3836, "Country": "Norway" }, "geometry": { "type": "Point", "coordinates": [ 8.332807525795543, 60.891720691094683 ] } },
{ "type": "Feature", "properties": { "WSO1_ID": 1115234, "station": "storeskar", "som_key": 3911, "Country": "Norway" }, "geometry": { "type": "Point", "coordinates": [ 8.332807525795543, 60.891720691094683 ] } },
{ "type": "Feature", "properties": { "WSO1_ID": 1115234, "station": "storeskar", "som_key": 3762, "Country": "Norway" }, "geometry": { "type": "Point", "coordinates": [ 8.332807525795543, 60.891720691094683 ] } },
{ "type": "Feature", "properties": { "WSO1_ID": 1115234, "station": "storeskar", "som_key": 4356, "Country": "Norway" }, "geometry": { "type": "Point", "coordinates": [ 8.332807525795543, 60.891720691094683 ] } },
{ "type": "Feature", "properties": { "WSO1_ID": 1115234, "station": "storeskar", "som_key": 4059, "Country": "Norway" }, "geometry": { "type": "Point", "coordinates": [ 8.332807525795543, 60.891720691094683 ] } },
{ "type": "Feature", "properties": { "WSO1_ID": 1115234, "station": "storeskar", "som_key": 3763, "Country": "Norway" }, "geometry": { "type": "Point", "coordinates": [ 8.332807525795543, 60.891720691094683 ] } },
{ "type": "Feature", "properties": { "WSO1_ID": 1115234, "station": "storeskar", "som_key": 3835, "Country": "Norway" }, "geometry": { "type": "Point", "coordinates": [ 8.332807525795543, 60.891720691094683 ] } },
{ "type": "Feature", "properties": { "WSO1_ID": 1115234, "station": "storeskar", "som_key": 4281, "Country": "Norway" }, "geometry": { "type": "Point", "coordinates": [ 8.332807525795543, 60.891720691094683 ] } },
{ "type": "Feature", "properties": { "WSO1_ID": 1115234, "station": "storeskar", "som_key": 4207, "Country": "Norway" }, "geometry": { "type": "Point", "coordinates": [ 8.332807525795543, 60.891720691094683 ] } },
{ "type": "Feature", "properties": { "WSO1_ID": 1115234, "station": "storeskar", "som_key": 3913, "Country": "Norway" }, "geometry": { "type": "Point", "coordinates": [ 8.332807525795543, 60.891720691094683 ] } },
{ "type": "Feature", "properties": { "WSO1_ID": 1115234, "station": "storeskar", "som_key": 3985, "Country": "Norway" }, "geometry": { "type": "Point", "coordinates": [ 8.332807525795543, 60.891720691094683 ] } },
{ "type": "Feature", "properties": { "WSO1_ID": 1115234, "station": "storeskar", "som_key": 3764, "Country": "Norway" }, "geometry": { "type": "Point", "coordinates": [ 8.332807525795543, 60.891720691094683 ] } },
{ "type": "Feature", "properties": { "WSO1_ID": 1115234, "station": "storeskar", "som_key": 3839, "Country": "Norway" }, "geometry": { "type": "Point", "coordinates": [ 8.332807525795543, 60.891720691094683 ] } },
{ "type": "Feature", "properties": { "WSO1_ID": 1112267, "station": "sula", "som_key": 3985, "Country": "Norway" }, "geometry": { "type": "Point", "coordinates": [ 8.101554680551619, 61.170781578672887 ] } },
{ "type": "Feature", "properties": { "WSO1_ID": 1112267, "station": "sula", "som_key": 3912, "Country": "Norway" }, "geometry": { "type": "Point", "coordinates": [ 8.101554680551619, 61.170781578672887 ] } },
{ "type": "Feature", "properties": { "WSO1_ID": 1112267, "station": "sula", "som_key": 4058, "Country": "Norway" }, "geometry": { "type": "Point", "coordinates": [ 8.101554680551619, 61.170781578672887 ] } },
{ "type": "Feature", "properties": { "WSO1_ID": 1112267, "station": "sula", "som_key": 3913, "Country": "Norway" }, "geometry": { "type": "Point", "coordinates": [ 8.101554680551619, 61.170781578672887 ] } },
{ "type": "Feature", "properties": { "WSO1_ID": 1112267, "station": "sula", "som_key": 3986, "Country": "Norway" }, "geometry": { "type": "Point", "coordinates": [ 8.101554680551619, 61.170781578672887 ] } },
{ "type": "Feature", "properties": { "WSO1_ID": 1112267, "station": "sula", "som_key": 3911, "Country": "Norway" }, "geometry": { "type": "Point", "coordinates": [ 8.101554680551619, 61.170781578672887 ] } },
{ "type": "Feature", "properties": { "WSO1_ID": 1112267, "station": "sula", "som_key": 4281, "Country": "Norway" }, "geometry": { "type": "Point", "coordinates": [ 8.101554680551619, 61.170781578672887 ] } },
{ "type": "Feature", "properties": { "WSO1_ID": 1112267, "station": "sula", "som_key": 3837, "Country": "Norway" }, "geometry": { "type": "Point", "coordinates": [ 8.101554680551619, 61.170781578672887 ] } },
{ "type": "Feature", "properties": { "WSO1_ID": 1112267, "station": "sula", "som_key": 3984, "Country": "Norway" }, "geometry": { "type": "Point", "coordinates": [ 8.101554680551619, 61.170781578672887 ] } },
{ "type": "Feature", "properties": { "WSO1_ID": 1112267, "station": "sula", "som_key": 4207, "Country": "Norway" }, "geometry": { "type": "Point", "coordinates": [ 8.101554680551619, 61.170781578672887 ] } },
{ "type": "Feature", "properties": { "WSO1_ID": 1112267, "station": "sula", "som_key": 4059, "Country": "Norway" }, "geometry": { "type": "Point", "coordinates": [ 8.101554680551619, 61.170781578672887 ] } },
{ "type": "Feature", "properties": { "WSO1_ID": 1112267, "station": "sula", "som_key": 3838, "Country": "Norway" }, "geometry": { "type": "Point", "coordinates": [ 8.101554680551619, 61.170781578672887 ] } },
{ "type": "Feature", "properties": { "WSO1_ID": 1127094, "station": "tannsvatn", "som_key": 3230, "Country": "Norway" }, "geometry": { "type": "Point", "coordinates": [ 8.067388395681681, 59.673171648018062 ] } },
{ "type": "Feature", "properties": { "WSO1_ID": 1127094, "station": "tannsvatn", "som_key": 3305, "Country": "Norway" }, "geometry": { "type": "Point", "coordinates": [ 8.067388395681681, 59.673171648018062 ] } },