{
"type": "FeatureCollection",
"crs": { "type": "name", "properties": { "name": "urn:ogc:def:crs:OGC:1.3:CRS84" } },
"features": [
{ "type": "Feature", "properties": { "station": "polmak", "WSO1_ID": 881297, "Country": "Norway" }, "geometry": { "type": "Point", "coordinates": [ 28.016007735370025, 70.07034472984779 ] } },
{ "type": "Feature", "properties": { "station": "karpelv", "WSO1_ID": 882594, "Country": "Norway" }, "geometry": { "type": "Point", "coordinates": [ 30.384120654295192, 69.659911194240536 ] } },
{ "type": "Feature", "properties": { "station": "manndalen_bru", "WSO1_ID": 1059001, "Country": "Norway" }, "geometry": { "type": "Point", "coordinates": [ 20.525619205845739, 69.523891322633261 ] } },
{ "type": "Feature", "properties": { "station": "masi", "WSO1_ID": 1058709, "Country": "Norway" }, "geometry": { "type": "Point", "coordinates": [ 23.635036293110392, 69.420040896744325 ] } },
{ "type": "Feature", "properties": { "station": "skogfjordv", "WSO1_ID": 1057779, "Country": "Norway" }, "geometry": { "type": "Point", "coordinates": [ 19.104124111066913, 69.98092589102815 ] } },
{ "type": "Feature", "properties": { "station": "berget", "WSO1_ID": 1075427, "Country": "Norway" }, "geometry": { "type": "Point", "coordinates": [ 13.878476032150042, 66.456716406838908 ] } },
{ "type": "Feature", "properties": { "station": "fonnerdalsv", "WSO1_ID": 1122920, "Country": "Norway" }, "geometry": { "type": "Point", "coordinates": [ 6.283018142916976, 60.06708084591429 ] } },
{ "type": "Feature", "properties": { "station": "fustvatn", "WSO1_ID": 1078355, "Country": "Norway" }, "geometry": { "type": "Point", "coordinates": [ 13.307592756877892, 65.905236966957233 ] } },
{ "type": "Feature", "properties": { "station": "haugland", "WSO1_ID": 1134078, "Country": "Norway" }, "geometry": { "type": "Point", "coordinates": [ 5.647619171261855, 58.69289244123182 ] } },
{ "type": "Feature", "properties": { "station": "junkerdalselv", "WSO1_ID": 1073493, "Country": "Norway" }, "geometry": { "type": "Point", "coordinates": [ 15.410687645277129, 66.814798101304262 ] } },
{ "type": "Feature", "properties": { "station": "knappom", "WSO1_ID": 1117321, "Country": "Norway" }, "geometry": { "type": "Point", "coordinates": [ 12.047124808441948, 60.641170208470157 ] } },
{ "type": "Feature", "properties": { "station": "morsvik_bru", "WSO1_ID": 1068649, "Country": "Norway" }, "geometry": { "type": "Point", "coordinates": [ 15.873569880775793, 67.715711704906568 ] } },
{ "type": "Feature", "properties": { "station": "nervoll", "WSO1_ID": 1080482, "Country": "Norway" }, "geometry": { "type": "Point", "coordinates": [ 13.986035559781486, 65.437571574242156 ] } },
{ "type": "Feature", "properties": { "station": "ovrevatn", "WSO1_ID": 1062644, "Country": "Norway" }, "geometry": { "type": "Point", "coordinates": [ 17.934531028770675, 68.874128804882915 ] } },
{ "type": "Feature", "properties": { "station": "ovstevatn", "WSO1_ID": 1065324, "Country": "Norway" }, "geometry": { "type": "Point", "coordinates": [ 17.489688756423433, 68.34785521260838 ] } },
{ "type": "Feature", "properties": { "station": "reinsnosv", "WSO1_ID": 1124288, "Country": "Norway" }, "geometry": { "type": "Point", "coordinates": [ 6.673597323765807, 59.946740891695868 ] } },
{ "type": "Feature", "properties": { "station": "skarsvatn", "WSO1_ID": 1071973, "Country": "Norway" }, "geometry": { "type": "Point", "coordinates": [ 14.985583244562781, 67.079329263816774 ] } },
{ "type": "Feature", "properties": { "station": "strandaa", "WSO1_ID": 1069527, "Country": "Norway" }, "geometry": { "type": "Point", "coordinates": [ 14.876696635524441, 67.53924589448944 ] } },
{ "type": "Feature", "properties": { "station": "trangen", "WSO1_ID": 1085873, "Country": "Norway" }, "geometry": { "type": "Point", "coordinates": [ 12.48164928606014, 64.43046652314564 ] } },
{ "type": "Feature", "properties": { "station": "vassvatn", "WSO1_ID": 1076043, "Country": "Norway" }, "geometry": { "type": "Point", "coordinates": [ 13.180768928869561, 66.392625873447486 ] } },
{ "type": "Feature", "properties": { "station": "veravatn", "WSO1_ID": 1089947, "Country": "Norway" }, "geometry": { "type": "Point", "coordinates": [ 12.326542975635826, 63.789341411259436 ] } },
{ "type": "Feature", "properties": { "station": "aardal", "WSO1_ID": 1134918, "Country": "Norway" }, "geometry": { "type": "Point", "coordinates": [ 6.49791316483858, 58.543667054304123 ] } },
{ "type": "Feature", "properties": { "station": "akslen", "WSO1_ID": 1105573, "Country": "Norway" }, "geometry": { "type": "Point", "coordinates": [ 8.447218251105046, 61.799549607777848 ] } },
{ "type": "Feature", "properties": { "station": "atnasjo", "WSO1_ID": 1105092, "Country": "Norway" }, "geometry": { "type": "Point", "coordinates": [ 10.22211912158452, 61.851938538549867 ] } },
{ "type": "Feature", "properties": { "station": "austenaa", "WSO1_ID": 1133494, "Country": "Norway" }, "geometry": { "type": "Point", "coordinates": [ 8.100525228489643, 58.839632911739344 ] } },
{ "type": "Feature", "properties": { "station": "bjordal", "WSO1_ID": 1134098, "Country": "Norway" }, "geometry": { "type": "Point", "coordinates": [ 6.504631474220413, 58.688931395883877 ] } },
{ "type": "Feature", "properties": { "station": "bjoreio", "WSO1_ID": 1119787, "Country": "Norway" }, "geometry": { "type": "Point", "coordinates": [ 7.395787537973189, 60.385238973738417 ] } },
{ "type": "Feature", "properties": { "station": "boyumselv", "WSO1_ID": 1109160, "Country": "Norway" }, "geometry": { "type": "Point", "coordinates": [ 6.742683845008654, 61.448699743194403 ] } },
{ "type": "Feature", "properties": { "station": "brekke_bru", "WSO1_ID": 1115239, "Country": "Norway" }, "geometry": { "type": "Point", "coordinates": [ 7.1142547387267, 60.84999414507498 ] } },
{ "type": "Feature", "properties": { "station": "bulken", "WSO1_ID": 1117093, "Country": "Norway" }, "geometry": { "type": "Point", "coordinates": [ 6.292537182522744, 60.628682807511552 ] } },
{ "type": "Feature", "properties": { "station": "djupadalsv", "WSO1_ID": 1130515, "Country": "Norway" }, "geometry": { "type": "Point", "coordinates": [ 6.368566878769813, 59.25500129147833 ] } },
{ "type": "Feature", "properties": { "station": "eggafoss", "WSO1_ID": 1095499, "Country": "Norway" }, "geometry": { "type": "Point", "coordinates": [ 11.183879939554121, 62.890106832909531 ] } },
{ "type": "Feature", "properties": { "station": "eggedal", "WSO1_ID": 1122550, "Country": "Norway" }, "geometry": { "type": "Point", "coordinates": [ 9.434388309811585, 60.151761350623197 ] } },
{ "type": "Feature", "properties": { "station": "engeren", "WSO1_ID": 1108399, "Country": "Norway" }, "geometry": { "type": "Point", "coordinates": [ 12.076647492281705, 61.528894495893418 ] } },
{ "type": "Feature", "properties": { "station": "etna", "WSO1_ID": 1114500, "Country": "Norway" }, "geometry": { "type": "Point", "coordinates": [ 9.626174296595416, 60.951901765438492 ] } },
{ "type": "Feature", "properties": { "station": "fetvatn", "WSO1_ID": 1100000, "Country": "Norway" }, "geometry": { "type": "Point", "coordinates": [ 6.592887563764099, 62.332500476372481 ] } },
{ "type": "Feature", "properties": { "station": "fiskum", "WSO1_ID": 1127081, "Country": "Norway" }, "geometry": { "type": "Point", "coordinates": [ 9.790200649753713, 59.697212295959517 ] } },
{ "type": "Feature", "properties": { "station": "fura", "WSO1_ID": 1115020, "Country": "Norway" }, "geometry": { "type": "Point", "coordinates": [ 11.324956793635691, 60.884835202957667 ] } },
{ "type": "Feature", "properties": { "station": "gaulfoss", "WSO1_ID": 1094063, "Country": "Norway" }, "geometry": { "type": "Point", "coordinates": [ 10.229018429870312, 63.108479071410194 ] } },
{ "type": "Feature", "properties": { "station": "gjerstad", "WSO1_ID": 1133359, "Country": "Norway" }, "geometry": { "type": "Point", "coordinates": [ 9.033271991389887, 58.88360533735554 ] } },
{ "type": "Feature", "properties": { "station": "gjuvaa", "WSO1_ID": 1125814, "Country": "Norway" }, "geometry": { "type": "Point", "coordinates": [ 8.794497962945382, 59.755175117480071 ] } },
{ "type": "Feature", "properties": { "station": "gjuvvatn", "WSO1_ID": 1131260, "Country": "Norway" }, "geometry": { "type": "Point", "coordinates": [ 7.214804687413238, 59.159174407668793 ] } },
{ "type": "Feature", "properties": { "station": "groset", "WSO1_ID": 1125687, "Country": "Norway" }, "geometry": { "type": "Point", "coordinates": [ 8.320614848613561, 59.835548138187072 ] } },
{ "type": "Feature", "properties": { "station": "gryta", "WSO1_ID": 1124272, "Country": "Norway" }, "geometry": { "type": "Point", "coordinates": [ 10.800658347417535, 59.987228010302815 ] } },
{ "type": "Feature", "properties": { "station": "hogfoss", "WSO1_ID": 1127994, "Country": "Norway" }, "geometry": { "type": "Point", "coordinates": [ 10.856104202915837, 59.551610292412363 ] } },
{ "type": "Feature", "properties": { "station": "hoggaas_bru", "WSO1_ID": 1091742, "Country": "Norway" }, "geometry": { "type": "Point", "coordinates": [ 11.358312417602741, 63.49292278178325 ] } },
{ "type": "Feature", "properties": { "station": "holen", "WSO1_ID": 1120067, "Country": "Norway" }, "geometry": { "type": "Point", "coordinates": [ 6.746254909050126, 60.357383555818629 ] } },
{ "type": "Feature", "properties": { "station": "holervatn", "WSO1_ID": 1116594, "Country": "Norway" }, "geometry": { "type": "Point", "coordinates": [ 9.458989847317179, 60.709622483367632 ] } },
{ "type": "Feature", "properties": { "station": "horte", "WSO1_ID": 1129186, "Country": "Norway" }, "geometry": { "type": "Point", "coordinates": [ 9.13830922141549, 59.433084332396334 ] } },
{ "type": "Feature", "properties": { "station": "hovefoss", "WSO1_ID": 1108058, "Country": "Norway" }, "geometry": { "type": "Point", "coordinates": [ 5.752137702706524, 61.532789808608939 ] } },
{ "type": "Feature", "properties": { "station": "jogla", "WSO1_ID": 1132705, "Country": "Norway" }, "geometry": { "type": "Point", "coordinates": [ 6.934778379432581, 58.957490099440697 ] } },
{ "type": "Feature", "properties": { "station": "kjelstad", "WSO1_ID": 1093069, "Country": "Norway" }, "geometry": { "type": "Point", "coordinates": [ 11.131100096945296, 63.266167543442201 ] } },
{ "type": "Feature", "properties": { "station": "kraakfoss", "WSO1_ID": 1122456, "Country": "Norway" }, "geometry": { "type": "Point", "coordinates": [ 11.080103751309803, 60.133445681311855 ] } },
{ "type": "Feature", "properties": { "station": "krinsvatn", "WSO1_ID": 1089991, "Country": "Norway" }, "geometry": { "type": "Point", "coordinates": [ 10.230822327992033, 63.801764773238084 ] } },
{ "type": "Feature", "properties": { "station": "lena", "WSO1_ID": 1117200, "Country": "Norway" }, "geometry": { "type": "Point", "coordinates": [ 10.811860183653469, 60.668517547206527 ] } },
{ "type": "Feature", "properties": { "station": "lislefj", "WSO1_ID": 1127626, "Country": "Norway" }, "geometry": { "type": "Point", "coordinates": [ 7.419619067000048, 59.608831460878775 ] } },
{ "type": "Feature", "properties": { "station": "lovatn", "WSO1_ID": 1104551, "Country": "Norway" }, "geometry": { "type": "Point", "coordinates": [ 6.889670310170478, 61.858693840385307 ] } },
{ "type": "Feature", "properties": { "station": "mevatn", "WSO1_ID": 1080992, "Country": "Norway" }, "geometry": { "type": "Point", "coordinates": [ 12.538049247769532, 65.365533329110932 ] } },
{ "type": "Feature", "properties": { "station": "myglevatn", "WSO1_ID": 1135441, "Country": "Norway" }, "geometry": { "type": "Point", "coordinates": [ 7.584991340634148, 58.445886508642204 ] } },
{ "type": "Feature", "properties": { "station": "myrkdalsv", "WSO1_ID": 1115571, "Country": "Norway" }, "geometry": { "type": "Point", "coordinates": [ 6.501574047700634, 60.799210251429074 ] } },
{ "type": "Feature", "properties": { "station": "narsjo", "WSO1_ID": 1099495, "Country": "Norway" }, "geometry": { "type": "Point", "coordinates": [ 11.478783492100137, 62.361318227114261 ] } },
{ "type": "Feature", "properties": { "station": "nautsundv", "WSO1_ID": 1111079, "Country": "Norway" }, "geometry": { "type": "Point", "coordinates": [ 5.385350174252196, 61.252895700490122 ] } },
{ "type": "Feature", "properties": { "station": "nessedalselv", "WSO1_ID": 1112037, "Country": "Norway" }, "geometry": { "type": "Point", "coordinates": [ 6.278384881684708, 61.159870786261152 ] } },
{ "type": "Feature", "properties": { "station": "nigardsbrev", "WSO1_ID": 1106911, "Country": "Norway" }, "geometry": { "type": "Point", "coordinates": [ 7.241905556729717, 61.666554243345011 ] } },
{ "type": "Feature", "properties": { "station": "oye", "WSO1_ID": 1102578, "Country": "Norway" }, "geometry": { "type": "Point", "coordinates": [ 6.931252182429458, 62.068180136568856 ] } },
{ "type": "Feature", "properties": { "station": "oyungen", "WSO1_ID": 1087187, "Country": "Norway" }, "geometry": { "type": "Point", "coordinates": [ 11.081687041778979, 64.243779065285437 ] } },
{ "type": "Feature", "properties": { "station": "rinna", "WSO1_ID": 1094865, "Country": "Norway" }, "geometry": { "type": "Point", "coordinates": [ 9.4070967221662, 62.984952812609244 ] } },
{ "type": "Feature", "properties": { "station": "risefoss", "WSO1_ID": 1098572, "Country": "Norway" }, "geometry": { "type": "Point", "coordinates": [ 9.592639370462436, 62.511384241491307 ] } },
{ "type": "Feature", "properties": { "station": "rosten", "WSO1_ID": 1104941, "Country": "Norway" }, "geometry": { "type": "Point", "coordinates": [ 9.404753500165997, 61.858568177394957 ] } },
{ "type": "Feature", "properties": { "station": "roykenes", "WSO1_ID": 1120278, "Country": "Norway" }, "geometry": { "type": "Point", "coordinates": [ 5.441903149625666, 60.248812167134425 ] } },
{ "type": "Feature", "properties": { "station": "sandvenvatn", "WSO1_ID": 1123147, "Country": "Norway" }, "geometry": { "type": "Point", "coordinates": [ 6.555300663339462, 60.053994029236456 ] } },
{ "type": "Feature", "properties": { "station": "skjerdalselv", "WSO1_ID": 1104807, "Country": "Norway" }, "geometry": { "type": "Point", "coordinates": [ 5.935549653788289, 61.815639025930089 ] } },
{ "type": "Feature", "properties": { "station": "sogndalsv", "WSO1_ID": 1110776, "Country": "Norway" }, "geometry": { "type": "Point", "coordinates": [ 7.006808220915129, 61.297838030086091 ] } },
{ "type": "Feature", "properties": { "station": "sogne", "WSO1_ID": 1136775, "Country": "Norway" }, "geometry": { "type": "Point", "coordinates": [ 7.835108465469644, 58.090979894463857 ] } },
{ "type": "Feature", "properties": { "station": "stordalsv", "WSO1_ID": 1126558, "Country": "Norway" }, "geometry": { "type": "Point", "coordinates": [ 6.010889007224479, 59.682936461741448 ] } },
{ "type": "Feature", "properties": { "station": "storeskar", "WSO1_ID": 1115234, "Country": "Norway" }, "geometry": { "type": "Point", "coordinates": [ 8.332807525795543, 60.891720691094683 ] } },
{ "type": "Feature", "properties": { "station": "sula", "WSO1_ID": 1112267, "Country": "Norway" }, "geometry": { "type": "Point", "coordinates": [ 8.101554680551619, 61.170781578672887 ] } },
{ "type": "Feature", "properties": { "station": "tannsvatn", "WSO1_ID": 1127094, "Country": "Norway" }, "geometry": { "type": "Point", "coordinates": [ 8.067388395681681, 59.673171648018062 ] } },
{ "type": "Feature", "properties": { "station": "teita_bru", "WSO1_ID": 1106041, "Country": "Norway" }, "geometry": { "type": "Point", "coordinates": [ 6.497451187223201, 61.728487083708671 ] } },
{ "type": "Feature", "properties": { "station": "tingvatn", "WSO1_ID": 1135459, "Country": "Norway" }, "geometry": { "type": "Point", "coordinates": [ 7.22334782653358, 58.401139473319418 ] } },
{ "type": "Feature", "properties": { "station": "tora", "WSO1_ID": 1103213, "Country": "Norway" }, "geometry": { "type": "Point", "coordinates": [ 7.866356012554144, 62.007722417533614 ] } },
{ "type": "Feature", "properties": { "station": "viksvatn", "WSO1_ID": 1110301, "Country": "Norway" }, "geometry": { "type": "Point", "coordinates": [ 5.886256307736179, 61.33305588959432 ] } },
{ "type": "Feature", "properties": { "station": "LANNAVAARA", "WSO1_ID": 1065656, "Country": "Sweden" }, "geometry": { "type": "Point", "coordinates": [ 21.988045454639458, 68.047922508708155 ] } },
{ "type": "Feature", "properties": { "station": "ÖVRE ABISKOJOKK", "WSO1_ID": 1064766, "Country": "Sweden" }, "geometry": { "type": "Point", "coordinates": [ 18.791782812475034, 68.363322666390928 ] } },
{ "type": "Feature", "properties": { "station": "MERTAJÄRVI", "WSO1_ID": 1063949, "Country": "Sweden" }, "geometry": { "type": "Point", "coordinates": [ 22.164376367666783, 68.366645567208678 ] } },
{ "type": "Feature", "properties": { "station": "PAJALA PUMPHUS", "WSO1_ID": 1068948, "Country": "Sweden" }, "geometry": { "type": "Point", "coordinates": [ 23.351273800552232, 67.227232595299867 ] } },
{ "type": "Feature", "properties": { "station": "ALTTAJÄRVI", "WSO1_ID": 1067251, "Country": "Sweden" }, "geometry": { "type": "Point", "coordinates": [ 20.589086724408695, 67.814267531845488 ] } },
{ "type": "Feature", "properties": { "station": "KALLIO 2", "WSO1_ID": 1068913, "Country": "Sweden" }, "geometry": { "type": "Point", "coordinates": [ 23.547999887996898, 67.226285638759592 ] } },
{ "type": "Feature", "properties": { "station": "KARESUVANTO", "WSO1_ID": 1063478, "Country": "Finland" }, "geometry": { "type": "Point", "coordinates": [ 22.482803960459492, 68.445241080240166 ] } },
{ "type": "Feature", "properties": { "station": "KUKKOLANKOSKI ÖVRE", "WSO1_ID": 1075227, "Country": "Finland" }, "geometry": { "type": "Point", "coordinates": [ 24.062199372233984, 65.980316975928545 ] } },
{ "type": "Feature", "properties": { "station": "KUKKASJÄRVI", "WSO1_ID": 920885, "Country": "Sweden" }, "geometry": { "type": "Point", "coordinates": [ 23.32448504166349, 66.114671399366401 ] } },
{ "type": "Feature", "properties": { "station": "RÄKTFORS", "WSO1_ID": 1074688, "Country": "Sweden" }, "geometry": { "type": "Point", "coordinates": [ 22.820468849877063, 66.171918332523276 ] } },
{ "type": "Feature", "properties": { "station": "KAALASJÄRVI", "WSO1_ID": 1067703, "Country": "Sweden" }, "geometry": { "type": "Point", "coordinates": [ 19.979928612559807, 67.767615081292249 ] } },
{ "type": "Feature", "properties": { "station": "ÖVRE LANSJÄRV", "WSO1_ID": 1072423, "Country": "Sweden" }, "geometry": { "type": "Point", "coordinates": [ 22.235287134392486, 66.640030714751163 ] } },
{ "type": "Feature", "properties": { "station": "KILLINGI", "WSO1_ID": 1068680, "Country": "Sweden" }, "geometry": { "type": "Point", "coordinates": [ 20.275747750911467, 67.522443168924497 ] } },
{ "type": "Feature", "properties": { "station": "TÄRENDÖ 2", "WSO1_ID": 1069496, "Country": "Sweden" }, "geometry": { "type": "Point", "coordinates": [ 22.650272246115346, 67.147332632952327 ] } },
{ "type": "Feature", "properties": { "station": "NIEMISEL", "WSO1_ID": 1075953, "Country": "Sweden" }, "geometry": { "type": "Point", "coordinates": [ 21.971224247036965, 66.022878719609011 ] } },
{ "type": "Feature", "properties": { "station": "YTTERHOLMEN", "WSO1_ID": 1075216, "Country": "Sweden" }, "geometry": { "type": "Point", "coordinates": [ 21.812178823265331, 66.172044533723351 ] } },
{ "type": "Feature", "properties": { "station": "VUODDASBÄCKEN", "WSO1_ID": 1073787, "Country": "Sweden" }, "geometry": { "type": "Point", "coordinates": [ 21.700407020652175, 66.416679807487142 ] } },
{ "type": "Feature", "properties": { "station": "NIAVVE", "WSO1_ID": 1072486, "Country": "Sweden" }, "geometry": { "type": "Point", "coordinates": [ 18.212163852283961, 66.875196209535886 ] } },
{ "type": "Feature", "properties": { "station": "KARATS", "WSO1_ID": 1073601, "Country": "Sweden" }, "geometry": { "type": "Point", "coordinates": [ 18.808307387015891, 66.65936274001406 ] } },
{ "type": "Feature", "properties": { "station": "SKABRAM", "WSO1_ID": 1073602, "Country": "Sweden" }, "geometry": { "type": "Point", "coordinates": [ 19.779337827616995, 66.602875690118708 ] } },
{ "type": "Feature", "properties": { "station": "PORJUS KRAFTVERK", "WSO1_ID": 1071504, "Country": "Sweden" }, "geometry": { "type": "Point", "coordinates": [ 19.783251887784242, 66.958947823859177 ] } },
{ "type": "Feature", "properties": { "station": "KÅBTÅJAURE", "WSO1_ID": 1070580, "Country": "Sweden" }, "geometry": { "type": "Point", "coordinates": [ 18.47797814505736, 67.195302705933742 ] } },
{ "type": "Feature", "properties": { "station": "SEITEVARE KRV", "WSO1_ID": 1071725, "Country": "Sweden" }, "geometry": { "type": "Point", "coordinates": [ 18.579948622629811, 66.976261116908034 ] } },
{ "type": "Feature", "properties": { "station": "BODENS KRV", "WSO1_ID": 1076867, "Country": "Sweden" }, "geometry": { "type": "Point", "coordinates": [ 21.674906337848853, 65.80883408941844 ] } },
{ "type": "Feature", "properties": { "station": "LETSI KRV", "WSO1_ID": 1074277, "Country": "Sweden" }, "geometry": { "type": "Point", "coordinates": [ 20.607711315949079, 66.440661928274253 ] } },
{ "type": "Feature", "properties": { "station": "RITSEMS KRV", "WSO1_ID": 1067694, "Country": "Sweden" }, "geometry": { "type": "Point", "coordinates": [ 17.632422267352233, 67.860113949917718 ] } },
{ "type": "Feature", "properties": { "station": "STALOLUOKTA", "WSO1_ID": 1069596, "Country": "Sweden" }, "geometry": { "type": "Point", "coordinates": [ 16.524849996944411, 67.428079564916331 ] } },
{ "type": "Feature", "properties": { "station": "VIETAS (SUORVADELEN)", "WSO1_ID": 1069002, "Country": "Sweden" }, "geometry": { "type": "Point", "coordinates": [ 18.202126778193893, 67.528767404409805 ] } },
{ "type": "Feature", "properties": { "station": "VIETAS (SATISDELEN)", "WSO1_ID": 1069121, "Country": "Sweden" }, "geometry": { "type": "Point", "coordinates": [ 18.439100743684993, 67.502970503441972 ] } },
{ "type": "Feature", "properties": { "station": "LÅNGSJÖN", "WSO1_ID": 923465, "Country": "Sweden" }, "geometry": { "type": "Point", "coordinates": [ 21.227859077837795, 65.852348555524969 ] } },
{ "type": "Feature", "properties": { "station": "STENUDDEN", "WSO1_ID": 1074511, "Country": "Sweden" }, "geometry": { "type": "Point", "coordinates": [ 17.786439389128105, 66.52986644474008 ] } },
{ "type": "Feature", "properties": { "station": "GRANSEL", "WSO1_ID": 1077200, "Country": "Sweden" }, "geometry": { "type": "Point", "coordinates": [ 20.321877142409356, 65.845537352473585 ] } },
{ "type": "Feature", "properties": { "station": "IDAFORS", "WSO1_ID": 1076963, "Country": "Sweden" }, "geometry": { "type": "Point", "coordinates": [ 20.346379154996033, 65.887325815261249 ] } },
{ "type": "Feature", "properties": { "station": "SIKFORS KRV", "WSO1_ID": 1078257, "Country": "Sweden" }, "geometry": { "type": "Point", "coordinates": [ 21.213123338715771, 65.534053351521763 ] } },
{ "type": "Feature", "properties": { "station": "LILLÄNGET", "WSO1_ID": 1080763, "Country": "Sweden" }, "geometry": { "type": "Point", "coordinates": [ 21.290904144415109, 65.040301539051214 ] } },
{ "type": "Feature", "properties": { "station": "KÅTASELET", "WSO1_ID": 1079712, "Country": "Sweden" }, "geometry": { "type": "Point", "coordinates": [ 19.887789452128061, 65.344885659142363 ] } },
{ "type": "Feature", "properties": { "station": "BYSKE", "WSO1_ID": 1081238, "Country": "Sweden" }, "geometry": { "type": "Point", "coordinates": [ 21.18737376855502, 64.956811995406227 ] } },
{ "type": "Feature", "properties": { "station": "OSTVIK", "WSO1_ID": 931994, "Country": "Sweden" }, "geometry": { "type": "Point", "coordinates": [ 21.073875649740977, 64.902135910612529 ] } },
{ "type": "Feature", "properties": { "station": "KÅGE 2", "WSO1_ID": 1081823, "Country": "Sweden" }, "geometry": { "type": "Point", "coordinates": [ 20.994138508808, 64.837340526342643 ] } },
{ "type": "Feature", "properties": { "station": "STRÖMFORS", "WSO1_ID": 1081024, "Country": "Sweden" }, "geometry": { "type": "Point", "coordinates": [ 18.958041224476457, 65.130490791612075 ] } },
{ "type": "Feature", "properties": { "station": "KVISTFORSENS KRV", "WSO1_ID": 1082280, "Country": "Sweden" }, "geometry": { "type": "Point", "coordinates": [ 20.8675110097223, 64.745634571006619 ] } },
{ "type": "Feature", "properties": { "station": "RIEBNES KRV", "WSO1_ID": 1075285, "Country": "Sweden" }, "geometry": { "type": "Point", "coordinates": [ 17.330797402013864, 66.404131338528757 ] } },
{ "type": "Feature", "properties": { "station": "SÄDVA KRV", "WSO1_ID": 1075257, "Country": "Sweden" }, "geometry": { "type": "Point", "coordinates": [ 16.837340479099293, 66.440277686415413 ] } },
{ "type": "Feature", "properties": { "station": "STORAVAN", "WSO1_ID": 1078633, "Country": "Sweden" }, "geometry": { "type": "Point", "coordinates": [ 18.147122563612054, 65.675291586303658 ] } },
{ "type": "Feature", "properties": { "station": "DALKARLSÅ", "WSO1_ID": 940731, "Country": "Sweden" }, "geometry": { "type": "Point", "coordinates": [ 20.854998910656452, 64.038229743525278 ] } },
{ "type": "Feature", "properties": { "station": "YTTERTRÄSK NEDRE", "WSO1_ID": 1085127, "Country": "Sweden" }, "geometry": { "type": "Point", "coordinates": [ 20.27113514570944, 64.211512755673184 ] } },
{ "type": "Feature", "properties": { "station": "SOLBERG", "WSO1_ID": 1078825, "Country": "Sweden" }, "geometry": { "type": "Point", "coordinates": [ 15.394697925090274, 65.749536004070507 ] } },
{ "type": "Feature", "properties": { "station": "GAUTRÄSK", "WSO1_ID": 1077601, "Country": "Sweden" }, "geometry": { "type": "Point", "coordinates": [ 16.257639943310199, 65.950530196839267 ] } },
{ "type": "Feature", "properties": { "station": "TÄNGVATTNET", "WSO1_ID": 1078517, "Country": "Sweden" }, "geometry": { "type": "Point", "coordinates": [ 14.837048525188408, 65.838594939263615 ] } },
{ "type": "Feature", "properties": { "station": "HARRSELE KRV", "WSO1_ID": 1087007, "Country": "Sweden" }, "geometry": { "type": "Point", "coordinates": [ 19.566876203266229, 64.018364763201419 ] } },
{ "type": "Feature", "properties": { "station": "STORNORRFORS KRV", "WSO1_ID": 1087585, "Country": "Sweden" }, "geometry": { "type": "Point", "coordinates": [ 20.065437514065479, 63.86597350868994 ] } },
{ "type": "Feature", "properties": { "station": "ÖVERUMAN NEDRE", "WSO1_ID": 1077795, "Country": "Sweden" }, "geometry": { "type": "Point", "coordinates": [ 15.025282339527706, 65.954395781444788 ] } },
{ "type": "Feature", "properties": { "station": "GRANÅKER", "WSO1_ID": 1085417, "Country": "Sweden" }, "geometry": { "type": "Point", "coordinates": [ 19.670213424669548, 64.24105940535236 ] } },
{ "type": "Feature", "properties": { "station": "SORSELE 2", "WSO1_ID": 1079449, "Country": "Sweden" }, "geometry": { "type": "Point", "coordinates": [ 17.512000801690064, 65.54347853491565 ] } },
{ "type": "Feature", "properties": { "station": "SKIRKNÄS", "WSO1_ID": 1078611, "Country": "Sweden" }, "geometry": { "type": "Point", "coordinates": [ 16.202932691012666, 65.752994469404086 ] } },
{ "type": "Feature", "properties": { "station": "LAISVALL", "WSO1_ID": 1076626, "Country": "Sweden" }, "geometry": { "type": "Point", "coordinates": [ 17.154960225869598, 66.131252310734411 ] } },
{ "type": "Feature", "properties": { "station": "STORUMAN 2", "WSO1_ID": 1081573, "Country": "Sweden" }, "geometry": { "type": "Point", "coordinates": [ 17.019126678679015, 65.110568542969688 ] } },
{ "type": "Feature", "properties": { "station": "GARDIKEN", "WSO1_ID": 1080064, "Country": "Sweden" }, "geometry": { "type": "Point", "coordinates": [ 15.860300230827566, 65.477412302407956 ] } },
{ "type": "Feature", "properties": { "station": "STORJUKTAN TOTALT", "WSO1_ID": 1080513, "Country": "Sweden" }, "geometry": { "type": "Point", "coordinates": [ 17.334982059747524, 65.322231867941127 ] } },
{ "type": "Feature", "properties": { "station": "TORRBÖLE 2", "WSO1_ID": 1088825, "Country": "Sweden" }, "geometry": { "type": "Point", "coordinates": [ 19.598181400284339, 63.703928823320247 ] } },
{ "type": "Feature", "properties": { "station": "KVARNBACKEN", "WSO1_ID": 1090221, "Country": "Sweden" }, "geometry": { "type": "Point", "coordinates": [ 19.250243155582304, 63.476809480691543 ] } },
{ "type": "Feature", "properties": { "station": "BJÖRNA KRV", "WSO1_ID": 1089996, "Country": "Sweden" }, "geometry": { "type": "Point", "coordinates": [ 18.602100033539035, 63.56446670363718 ] } },
{ "type": "Feature", "properties": { "station": "VÄSTERSEL", "WSO1_ID": 1090868, "Country": "Sweden" }, "geometry": { "type": "Point", "coordinates": [ 18.301723866645148, 63.434356243559243 ] } },
{ "type": "Feature", "properties": { "station": "RÖÅN", "WSO1_ID": 1089834, "Country": "Sweden" }, "geometry": { "type": "Point", "coordinates": [ 16.757237726963147, 63.642179356698406 ] } },
{ "type": "Feature", "properties": { "station": "NÄMFORSENS KRV", "WSO1_ID": 1091169, "Country": "Sweden" }, "geometry": { "type": "Point", "coordinates": [ 16.88506401872321, 63.441270049403776 ] } },
{ "type": "Feature", "properties": { "station": "FLÅSJÖN NEDRE", "WSO1_ID": 1087297, "Country": "Sweden" }, "geometry": { "type": "Point", "coordinates": [ 15.921632631434779, 64.130901174727015 ] } },
{ "type": "Feature", "properties": { "station": "ANKARVATTNET", "WSO1_ID": 1083222, "Country": "Sweden" }, "geometry": { "type": "Point", "coordinates": [ 14.22494464909995, 64.877874170615144 ] } },
{ "type": "Feature", "properties": { "station": "HJÄLTA KRV", "WSO1_ID": 1092678, "Country": "Sweden" }, "geometry": { "type": "Point", "coordinates": [ 17.099790707094428, 63.18445902886922 ] } },
{ "type": "Feature", "properties": { "station": "BORGA NEDRE", "WSO1_ID": 1083489, "Country": "Sweden" }, "geometry": { "type": "Point", "coordinates": [ 15.028296939438047, 64.804050133125486 ] } },
{ "type": "Feature", "properties": { "station": "KILVAMSKLIPPEN", "WSO1_ID": 1086911, "Country": "Sweden" }, "geometry": { "type": "Point", "coordinates": [ 16.278532971910881, 64.166969843567955 ] } },
{ "type": "Feature", "properties": { "station": "LASELE KRV", "WSO1_ID": 1090259, "Country": "Sweden" }, "geometry": { "type": "Point", "coordinates": [ 16.828650531436764, 63.556807058124889 ] } },
{ "type": "Feature", "properties": { "station": "KILFORSENS KRV", "WSO1_ID": 1090564, "Country": "Sweden" }, "geometry": { "type": "Point", "coordinates": [ 16.655175745347819, 63.556230930958677 ] } },
{ "type": "Feature", "properties": { "station": "SOLLEFTEÅ KRV", "WSO1_ID": 1092667, "Country": "Sweden" }, "geometry": { "type": "Point", "coordinates": [ 17.269058217908118, 63.172858188533411 ] } },
{ "type": "Feature", "properties": { "station": "MESJÖN ÖVRE", "WSO1_ID": 1083820, "Country": "Sweden" }, "geometry": { "type": "Point", "coordinates": [ 15.38501878900308, 64.72484795958745 ] } },
{ "type": "Feature", "properties": { "station": "TÅSJÖ KRV", "WSO1_ID": 1087038, "Country": "Sweden" }, "geometry": { "type": "Point", "coordinates": [ 16.012214342472298, 64.161753790489257 ] } },
{ "type": "Feature", "properties": { "station": "LAJKSJÖN 2", "WSO1_ID": 1086355, "Country": "Sweden" }, "geometry": { "type": "Point", "coordinates": [ 16.485328847507734, 64.245980572224639 ] } },
{ "type": "Feature", "properties": { "station": "MALGOMAJS KRV", "WSO1_ID": 1084062, "Country": "Sweden" }, "geometry": { "type": "Point", "coordinates": [ 16.510786149695779, 64.64959646004877 ] } },
{ "type": "Feature", "properties": { "station": "LIMINGEN", "WSO1_ID": 1084319, "Country": "Sweden" }, "geometry": { "type": "Point", "coordinates": [ 13.766376402249497, 64.692087077892097 ] } },
{ "type": "Feature", "properties": { "station": "STRÖMSVATTUDAL 3", "WSO1_ID": 1089300, "Country": "Sweden" }, "geometry": { "type": "Point", "coordinates": [ 15.616744363881391, 63.82336368124011 ] } },
{ "type": "Feature", "properties": { "station": "KULTSJÖLUSPEN", "WSO1_ID": 1082564, "Country": "Sweden" }, "geometry": { "type": "Point", "coordinates": [ 15.454257889379731, 64.966248479795865 ] } },
{ "type": "Feature", "properties": { "station": "JUNSTERFORSEN TOTALT", "WSO1_ID": 1084957, "Country": "Sweden" }, "geometry": { "type": "Point", "coordinates": [ 14.137034211727162, 64.559715591210747 ] } },
{ "type": "Feature", "properties": { "station": "VOJMSJÖLUSPEN", "WSO1_ID": 1082817, "Country": "Sweden" }, "geometry": { "type": "Point", "coordinates": [ 16.74985453324204, 64.862952038214814 ] } },
{ "type": "Feature", "properties": { "station": "STORSJOUTEN TOTALT", "WSO1_ID": 1084935, "Country": "Sweden" }, "geometry": { "type": "Point", "coordinates": [ 15.081992834059841, 64.536892595309723 ] } },
{ "type": "Feature", "properties": { "station": "RISNÄS", "WSO1_ID": 1095693, "Country": "Sweden" }, "geometry": { "type": "Point", "coordinates": [ 17.576576446354888, 62.691277089215731 ] } },
{ "type": "Feature", "properties": { "station": "HAMMARFORSEN", "WSO1_ID": 1093148, "Country": "Sweden" }, "geometry": { "type": "Point", "coordinates": [ 16.3651990433702, 63.110813877684777 ] } },
{ "type": "Feature", "properties": { "station": "ÄCKLINGEN", "WSO1_ID": 1090194, "Country": "Sweden" }, "geometry": { "type": "Point", "coordinates": [ 13.013819764819118, 63.739264134457208 ] } },
{ "type": "Feature", "properties": { "station": "ÖSTRA NORN", "WSO1_ID": 1091951, "Country": "Sweden" }, "geometry": { "type": "Point", "coordinates": [ 12.797130957553824, 63.42665532679424 ] } },
{ "type": "Feature", "properties": { "station": "OTTSJÖN NEDRE", "WSO1_ID": 1093432, "Country": "Sweden" }, "geometry": { "type": "Point", "coordinates": [ 13.140046675631574, 63.192560381667306 ] } },
{ "type": "Feature", "properties": { "station": "RENGEN", "WSO1_ID": 1088083, "Country": "Sweden" }, "geometry": { "type": "Point", "coordinates": [ 14.098540757104265, 64.071019914604747 ] } },
{ "type": "Feature", "properties": { "station": "HISSMOFORS KRV", "WSO1_ID": 1092312, "Country": "Sweden" }, "geometry": { "type": "Point", "coordinates": [ 14.470187396445052, 63.332725518644352 ] } },
{ "type": "Feature", "properties": { "station": "JÄRPSTRÖMMENS KRV", "WSO1_ID": 1092158, "Country": "Sweden" }, "geometry": { "type": "Point", "coordinates": [ 13.385977195060599, 63.391861180721847 ] } },
{ "type": "Feature", "properties": { "station": "MÖRSIL KRV", "WSO1_ID": 1092673, "Country": "Sweden" }, "geometry": { "type": "Point", "coordinates": [ 13.689741523537606, 63.297684929565449 ] } },
{ "type": "Feature", "properties": { "station": "LANDÖSJÖN NEDRE", "WSO1_ID": 1091054, "Country": "Sweden" }, "geometry": { "type": "Point", "coordinates": [ 14.296376804616918, 63.547264542512607 ] } },
{ "type": "Feature", "properties": { "station": "FÅNGÅMON 2", "WSO1_ID": 1093478, "Country": "Sweden" }, "geometry": { "type": "Point", "coordinates": [ 13.124594812919106, 63.183380693551243 ] } },
{ "type": "Feature", "properties": { "station": "HOTAGSSTRÖMMEN", "WSO1_ID": 1089660, "Country": "Sweden" }, "geometry": { "type": "Point", "coordinates": [ 14.680744052913212, 63.783290514100848 ] } },
{ "type": "Feature", "properties": { "station": "FYRÅS", "WSO1_ID": 1091292, "Country": "Sweden" }, "geometry": { "type": "Point", "coordinates": [ 15.429054586049267, 63.476761767873747 ] } },
{ "type": "Feature", "properties": { "station": "BUNNERVIKEN", "WSO1_ID": 1092784, "Country": "Sweden" }, "geometry": { "type": "Point", "coordinates": [ 12.594503647178325, 63.311947271760374 ] } },
{ "type": "Feature", "properties": { "station": "MEDSTUGAN NEDRE", "WSO1_ID": 1091594, "Country": "Sweden" }, "geometry": { "type": "Point", "coordinates": [ 12.397378346768408, 63.524528061601515 ] } },
{ "type": "Feature", "properties": { "station": "BERGEFORSENS KRV", "WSO1_ID": 1097013, "Country": "Sweden" }, "geometry": { "type": "Point", "coordinates": [ 17.378774764579639, 62.520312690672235 ] } },
{ "type": "Feature", "properties": { "station": "TORRÖNS KRV", "WSO1_ID": 1089774, "Country": "Sweden" }, "geometry": { "type": "Point", "coordinates": [ 13.069178384769399, 63.772378742659036 ] } },
{ "type": "Feature", "properties": { "station": "SÄLLSJÖN TOTALT", "WSO1_ID": 1092998, "Country": "Sweden" }, "geometry": { "type": "Point", "coordinates": [ 13.696855199541561, 63.238638314612629 ] } },
{ "type": "Feature", "properties": { "station": "GIMDALSBY", "WSO1_ID": 1095377, "Country": "Sweden" }, "geometry": { "type": "Point", "coordinates": [ 15.664777682125177, 62.841663084647834 ] } },
{ "type": "Feature", "properties": { "station": "TORPSHAMMAR KRV", "WSO1_ID": 1097515, "Country": "Sweden" }, "geometry": { "type": "Point", "coordinates": [ 16.380365289681333, 62.510172349826647 ] } },
{ "type": "Feature", "properties": { "station": "SKALLBÖLE KRV", "WSO1_ID": 1098629, "Country": "Sweden" }, "geometry": { "type": "Point", "coordinates": [ 16.965286646393967, 62.364485710917357 ] } },
{ "type": "Feature", "properties": { "station": "BJÖRNHÅN", "WSO1_ID": 1096195, "Country": "Sweden" }, "geometry": { "type": "Point", "coordinates": [ 13.28417179161594, 62.785712320004478 ] } },
{ "type": "Feature", "properties": { "station": "STORSILLRET", "WSO1_ID": 1096417, "Country": "Sweden" }, "geometry": { "type": "Point", "coordinates": [ 16.293158312813002, 62.66278224129772 ] } },
{ "type": "Feature", "properties": { "station": "NEDRE SKÄRVAGEN", "WSO1_ID": 1096019, "Country": "Sweden" }, "geometry": { "type": "Point", "coordinates": [ 12.774773258154816, 62.805269010140925 ] } },
{ "type": "Feature", "properties": { "station": "LÄNNÄSSJÖN", "WSO1_ID": 1096694, "Country": "Sweden" }, "geometry": { "type": "Point", "coordinates": [ 14.18336740532817, 62.673592089543469 ] } },
{ "type": "Feature", "properties": { "station": "ÖSTAVALLSELET", "WSO1_ID": 1098617, "Country": "Sweden" }, "geometry": { "type": "Point", "coordinates": [ 15.459870362454616, 62.423058104322756 ] } },
{ "type": "Feature", "properties": { "station": "HASSELA", "WSO1_ID": 1101326, "Country": "Sweden" }, "geometry": { "type": "Point", "coordinates": [ 16.788015435445455, 62.080560400560401 ] } },
{ "type": "Feature", "properties": { "station": "ROLFSTA", "WSO1_ID": 1104319, "Country": "Sweden" }, "geometry": { "type": "Point", "coordinates": [ 16.872095121150664, 61.749027449912241 ] } },
{ "type": "Feature", "properties": { "station": "SKOGSLIDEN", "WSO1_ID": 1108823, "Country": "Sweden" }, "geometry": { "type": "Point", "coordinates": [ 16.917165275407889, 61.365043179872544 ] } },
{ "type": "Feature", "properties": { "station": "NYBRO", "WSO1_ID": 1109533, "Country": "Sweden" }, "geometry": { "type": "Point", "coordinates": [ 15.529487875874171, 61.363623693838612 ] } },
{ "type": "Feature", "properties": { "station": "LILLGLÄN", "WSO1_ID": 1097268, "Country": "Sweden" }, "geometry": { "type": "Point", "coordinates": [ 12.129873354017338, 62.639758928381859 ] } },
{ "type": "Feature", "properties": { "station": "LJUSNEDAL ÖVRE", "WSO1_ID": 1097565, "Country": "Sweden" }, "geometry": { "type": "Point", "coordinates": [ 12.598139731148201, 62.547611137993016 ] } },
{ "type": "Feature", "properties": { "station": "TÄNNDALEN", "WSO1_ID": 1098311, "Country": "Sweden" }, "geometry": { "type": "Point", "coordinates": [ 12.350806322628072, 62.537776408063934 ] } },
{ "type": "Feature", "properties": { "station": "ALFTA KRV", "WSO1_ID": 1109518, "Country": "Sweden" }, "geometry": { "type": "Point", "coordinates": [ 16.003566533235869, 61.346447594769892 ] } },
{ "type": "Feature", "properties": { "station": "DÖNJE KRV", "WSO1_ID": 1108687, "Country": "Sweden" }, "geometry": { "type": "Point", "coordinates": [ 16.406902810717533, 61.397774533862119 ] } },
{ "type": "Feature", "properties": { "station": "LJUSNE STRÖMMAR KRV", "WSO1_ID": 1110161, "Country": "Sweden" }, "geometry": { "type": "Point", "coordinates": [ 17.083780423355847, 61.213051671880983 ] } },
{ "type": "Feature", "properties": { "station": "HALVFARI KRV", "WSO1_ID": 1099125, "Country": "Sweden" }, "geometry": { "type": "Point", "coordinates": [ 13.453682718787544, 62.434844393632922 ] } },
{ "type": "Feature", "properties": { "station": "OPPLI", "WSO1_ID": 1102684, "Country": "Sweden" }, "geometry": { "type": "Point", "coordinates": [ 15.813615680790436, 61.963136891847796 ] } },
{ "type": "Feature", "properties": { "station": "SARAS FORS", "WSO1_ID": 1100043, "Country": "Sweden" }, "geometry": { "type": "Point", "coordinates": [ 14.83392574120424, 62.242755144777171 ] } },
{ "type": "Feature", "properties": { "station": "RYGGESBO", "WSO1_ID": 1107966, "Country": "Sweden" }, "geometry": { "type": "Point", "coordinates": [ 15.855769881822738, 61.486138177587328 ] } },
{ "type": "Feature", "properties": { "station": "SVEGS KRV", "WSO1_ID": 1102670, "Country": "Sweden" }, "geometry": { "type": "Point", "coordinates": [ 14.286509022129762, 62.0278915647446 ] } },
{ "type": "Feature", "properties": { "station": "KONSTDALSSTRÖMMEN", "WSO1_ID": 1113833, "Country": "Sweden" }, "geometry": { "type": "Point", "coordinates": [ 16.812619141722429, 60.861854942033794 ] } },
{ "type": "Feature", "properties": { "station": "TOLVFORS KRV", "WSO1_ID": 1115555, "Country": "Sweden" }, "geometry": { "type": "Point", "coordinates": [ 17.115271496619304, 60.670177246481693 ] } },
{ "type": "Feature", "properties": { "station": "ERSBO", "WSO1_ID": 1110905, "Country": "Sweden" }, "geometry": { "type": "Point", "coordinates": [ 13.010899326760203, 61.310243765328373 ] } },
{ "type": "Feature", "properties": { "station": "FULUNÄS", "WSO1_ID": 1110203, "Country": "Sweden" }, "geometry": { "type": "Point", "coordinates": [ 13.073656865887067, 61.308110017482335 ] } },
{ "type": "Feature", "properties": { "station": "GRÖTSJÖN", "WSO1_ID": 1104668, "Country": "Sweden" }, "geometry": { "type": "Point", "coordinates": [ 12.439517995391217, 61.819374457918215 ] } },
{ "type": "Feature", "properties": { "station": "SKATTUNGEN", "WSO1_ID": 1111439, "Country": "Sweden" }, "geometry": { "type": "Point", "coordinates": [ 14.866477164065032, 61.200163497371371 ] } },
{ "type": "Feature", "properties": { "station": "LÅNGHAG", "WSO1_ID": 1118835, "Country": "Sweden" }, "geometry": { "type": "Point", "coordinates": [ 15.716303289638352, 60.396583250104278 ] } },
{ "type": "Feature", "properties": { "station": "LIMA KRV", "WSO1_ID": 1115326, "Country": "Sweden" }, "geometry": { "type": "Point", "coordinates": [ 13.427386911610832, 60.796930928234474 ] } },
{ "type": "Feature", "properties": { "station": "ÅSENS KRV", "WSO1_ID": 1110806, "Country": "Sweden" }, "geometry": { "type": "Point", "coordinates": [ 13.762441718795568, 61.283784801667437 ] } },
{ "type": "Feature", "properties": { "station": "NÄS KRV", "WSO1_ID": 1120783, "Country": "Sweden" }, "geometry": { "type": "Point", "coordinates": [ 16.480373977264296, 60.174721580800707 ] } },
{ "type": "Feature", "properties": { "station": "GRÅDA KRV", "WSO1_ID": 1116747, "Country": "Sweden" }, "geometry": { "type": "Point", "coordinates": [ 15.019145317619179, 60.602991113725686 ] } },
{ "type": "Feature", "properties": { "station": "FORSHUVUDS KRV", "WSO1_ID": 1118083, "Country": "Sweden" }, "geometry": { "type": "Point", "coordinates": [ 15.423493675835514, 60.535998176132949 ] } },
{ "type": "Feature", "properties": { "station": "MOCKFJÄRD KRV", "WSO1_ID": 1118129, "Country": "Sweden" }, "geometry": { "type": "Point", "coordinates": [ 14.900952865535999, 60.484099126377281 ] } },
{ "type": "Feature", "properties": { "station": "IDRE 3", "WSO1_ID": 1104748, "Country": "Sweden" }, "geometry": { "type": "Point", "coordinates": [ 12.748181180976523, 61.853620911506511 ] } },
{ "type": "Feature", "properties": { "station": "GÄVUNDA KRV", "WSO1_ID": 1115956, "Country": "Sweden" }, "geometry": { "type": "Point", "coordinates": [ 14.126966647178039, 60.73856435694524 ] } },
{ "type": "Feature", "properties": { "station": "BÖSSBO", "WSO1_ID": 1109783, "Country": "Sweden" }, "geometry": { "type": "Point", "coordinates": [ 14.027252837612536, 61.358079815867654 ] } },
{ "type": "Feature", "properties": { "station": "VÄSTRA ÄRNÄS", "WSO1_ID": 1114620, "Country": "Sweden" }, "geometry": { "type": "Point", "coordinates": [ 13.355188478504855, 60.902312274297778 ] } },
{ "type": "Feature", "properties": { "station": "SVÄRDSJÖ", "WSO1_ID": 1115361, "Country": "Sweden" }, "geometry": { "type": "Point", "coordinates": [ 15.920680857851817, 60.743847829175579 ] } },
{ "type": "Feature", "properties": { "station": "HYTTINGSHEDEN", "WSO1_ID": 1118631, "Country": "Sweden" }, "geometry": { "type": "Point", "coordinates": [ 15.27717735087106, 60.425716621631182 ] } },
{ "type": "Feature", "properties": { "station": "ÄLVKARLEBY KRV", "WSO1_ID": 1116344, "Country": "Sweden" }, "geometry": { "type": "Point", "coordinates": [ 17.445326503191552, 60.56422531674928 ] } },
{ "type": "Feature", "properties": { "station": "VÄSSINKOSKI KRV", "WSO1_ID": 1108371, "Country": "Sweden" }, "geometry": { "type": "Point", "coordinates": [ 14.710922586543335, 61.48954002597889 ] } },
{ "type": "Feature", "properties": { "station": "SPJUTMO KRV", "WSO1_ID": 1112548, "Country": "Sweden" }, "geometry": { "type": "Point", "coordinates": [ 14.32552980039665, 61.084459607193715 ] } },
{ "type": "Feature", "properties": { "station": "FINSTA", "WSO1_ID": 1124252, "Country": "Sweden" }, "geometry": { "type": "Point", "coordinates": [ 18.49094373608132, 59.735567480115364 ] } },
{ "type": "Feature", "properties": { "station": "ÖVRE HYNDEVAD", "WSO1_ID": 1128621, "Country": "Sweden" }, "geometry": { "type": "Point", "coordinates": [ 16.469098557373531, 59.322556272389541 ] } },
{ "type": "Feature", "properties": { "station": "KÅFALLA", "WSO1_ID": 1126870, "Country": "Sweden" }, "geometry": { "type": "Point", "coordinates": [ 15.423587666439843, 59.586886368619034 ] } },
{ "type": "Feature", "properties": { "station": "SKÄLLNORA", "WSO1_ID": 1126896, "Country": "Sweden" }, "geometry": { "type": "Point", "coordinates": [ 17.982133333855487, 59.485530911832825 ] } },
{ "type": "Feature", "properties": { "station": "HAMMARBY 2", "WSO1_ID": 1127683, "Country": "Sweden" }, "geometry": { "type": "Point", "coordinates": [ 15.116613639596066, 59.534901582005595 ] } },
{ "type": "Feature", "properties": { "station": "FELLINGSBRO", "WSO1_ID": 1128352, "Country": "Sweden" }, "geometry": { "type": "Point", "coordinates": [ 15.584656086521509, 59.431411931336754 ] } },
{ "type": "Feature", "properties": { "station": "DALKARLSHYTTAN", "WSO1_ID": 1127165, "Country": "Sweden" }, "geometry": { "type": "Point", "coordinates": [ 15.247730141828264, 59.590650943006899 ] } },
{ "type": "Feature", "properties": { "station": "GRÄNVAD", "WSO1_ID": 1125479, "Country": "Sweden" }, "geometry": { "type": "Point", "coordinates": [ 16.784921381974311, 59.664162774326989 ] } },
{ "type": "Feature", "properties": { "station": "BERG", "WSO1_ID": 1126308, "Country": "Sweden" }, "geometry": { "type": "Point", "coordinates": [ 16.144048246348561, 59.598226001141619 ] } },
{ "type": "Feature", "properties": { "station": "DÖMSTA", "WSO1_ID": 1126692, "Country": "Sweden" }, "geometry": { "type": "Point", "coordinates": [ 15.906354686447893, 59.543203963734676 ] } },
{ "type": "Feature", "properties": { "station": "ODENSVIBRON 2", "WSO1_ID": 1126587, "Country": "Sweden" }, "geometry": { "type": "Point", "coordinates": [ 15.980555802000366, 59.538793704075225 ] } },
{ "type": "Feature", "properties": { "station": "KRINGLAN", "WSO1_ID": 1126336, "Country": "Sweden" }, "geometry": { "type": "Point", "coordinates": [ 14.795233997938386, 59.694321713594782 ] } },
{ "type": "Feature", "properties": { "station": "FINNTORPET", "WSO1_ID": 1120868, "Country": "Sweden" }, "geometry": { "type": "Point", "coordinates": [ 15.071141037550582, 60.222581491627466 ] } },
{ "type": "Feature", "properties": { "station": "SÄVJA", "WSO1_ID": 1123702, "Country": "Sweden" }, "geometry": { "type": "Point", "coordinates": [ 17.707886442955875, 59.82959306613504 ] } },
{ "type": "Feature", "properties": { "station": "VATTHOLMA 2", "WSO1_ID": 1120624, "Country": "Sweden" }, "geometry": { "type": "Point", "coordinates": [ 17.734064652154981, 60.02020357451574 ] } },
{ "type": "Feature", "properties": { "station": "RANSTA", "WSO1_ID": 1124593, "Country": "Sweden" }, "geometry": { "type": "Point", "coordinates": [ 17.396654451519652, 59.758475647651196 ] } },
{ "type": "Feature", "properties": { "station": "HÄRNEVI", "WSO1_ID": 1125001, "Country": "Sweden" }, "geometry": { "type": "Point", "coordinates": [ 17.072885512794503, 59.733618593747451 ] } },
{ "type": "Feature", "properties": { "station": "ÅKERS KRUTBRUK", "WSO1_ID": 1129279, "Country": "Sweden" }, "geometry": { "type": "Point", "coordinates": [ 17.121035907395857, 59.264195867106224 ] } },
{ "type": "Feature", "properties": { "station": "RAMNÄS KRV", "WSO1_ID": 1125015, "Country": "Sweden" }, "geometry": { "type": "Point", "coordinates": [ 16.190506059395368, 59.775416218521407 ] } },
{ "type": "Feature", "properties": { "station": "STORMYRA", "WSO1_ID": 1129217, "Country": "Sweden" }, "geometry": { "type": "Point", "coordinates": [ 18.329561326911076, 59.202469845397488 ] } },
{ "type": "Feature", "properties": { "station": "SAXBRO", "WSO1_ID": 1129960, "Country": "Sweden" }, "geometry": { "type": "Point", "coordinates": [ 17.808861401974291, 59.116602802784122 ] } },
{ "type": "Feature", "properties": { "station": "BAGGEBOL NEDRE 3", "WSO1_ID": 1131803, "Country": "Sweden" }, "geometry": { "type": "Point", "coordinates": [ 17.267309396458046, 58.931569817688953 ] } },
{ "type": "Feature", "properties": { "station": "HALLBOSJÖN", "WSO1_ID": 1132641, "Country": "Sweden" }, "geometry": { "type": "Point", "coordinates": [ 16.771614309389999, 58.83198441702293 ] } },
{ "type": "Feature", "properties": { "station": "CHRIST.HLM REGL.DAMM", "WSO1_ID": 1132674, "Country": "Sweden" }, "geometry": { "type": "Point", "coordinates": [ 16.940740813384039, 58.813622799307083 ] } },
{ "type": "Feature", "properties": { "station": "SIBRO", "WSO1_ID": 1131785, "Country": "Sweden" }, "geometry": { "type": "Point", "coordinates": [ 16.884595755777038, 58.951122883142325 ] } },
{ "type": "Feature", "properties": { "station": "KILA", "WSO1_ID": 1133272, "Country": "Sweden" }, "geometry": { "type": "Point", "coordinates": [ 16.552241880812222, 58.744526279705859 ] } },
{ "type": "Feature", "properties": { "station": "VELEN 2", "WSO1_ID": 1133797, "Country": "Sweden" }, "geometry": { "type": "Point", "coordinates": [ 14.317659516408929, 58.713180881511015 ] } },
{ "type": "Feature", "properties": { "station": "NOLSJÖN NEDRE", "WSO1_ID": 1133406, "Country": "Sweden" }, "geometry": { "type": "Point", "coordinates": [ 14.307845757692963, 58.792808288452584 ] } },
{ "type": "Feature", "properties": { "station": "MOTALA KRV", "WSO1_ID": 1134598, "Country": "Sweden" }, "geometry": { "type": "Point", "coordinates": [ 15.074678836182065, 58.547408049189542 ] } },
{ "type": "Feature", "properties": { "station": "GÖSTAD", "WSO1_ID": 1134270, "Country": "Sweden" }, "geometry": { "type": "Point", "coordinates": [ 15.848349496879514, 58.5925041734587 ] } },
{ "type": "Feature", "properties": { "station": "SVED", "WSO1_ID": 1136838, "Country": "Sweden" }, "geometry": { "type": "Point", "coordinates": [ 14.134173334742727, 58.023991805516957 ] } },
{ "type": "Feature", "properties": { "station": "NORREFORS", "WSO1_ID": 1137680, "Country": "Sweden" }, "geometry": { "type": "Point", "coordinates": [ 14.123878123769069, 57.716782382119469 ] } },
{ "type": "Feature", "properties": { "station": "MARSTAD", "WSO1_ID": 1135413, "Country": "Sweden" }, "geometry": { "type": "Point", "coordinates": [ 15.022305129041044, 58.400826639902263 ] } },
{ "type": "Feature", "properties": { "station": "CARLFORS", "WSO1_ID": 1137576, "Country": "Sweden" }, "geometry": { "type": "Point", "coordinates": [ 14.33000066849131, 57.761568185230871 ] } },
{ "type": "Feature", "properties": { "station": "SPÅNGA NEDRE", "WSO1_ID": 22097, "Country": "Sweden" }, "geometry": { "type": "Point", "coordinates": [ 14.049282115500995, 56.172263457223131 ] } },
{ "type": "Feature", "properties": { "station": "HÖRLINGE", "WSO1_ID": 22026, "Country": "Sweden" }, "geometry": { "type": "Point", "coordinates": [ 13.686663378840006, 56.185797021941106 ] } },
{ "type": "Feature", "properties": { "station": "BIVARÖDSMÖLLA", "WSO1_ID": 22031, "Country": "Sweden" }, "geometry": { "type": "Point", "coordinates": [ 14.164456340171704, 56.179059315752205 ] } },
{ "type": "Feature", "properties": { "station": "SKEINGESJÖN", "WSO1_ID": 21112, "Country": "Sweden" }, "geometry": { "type": "Point", "coordinates": [ 13.909200606319823, 56.366330328387654 ] } },
{ "type": "Feature", "properties": { "station": "TORSEBRO KRV", "WSO1_ID": 22361, "Country": "Sweden" }, "geometry": { "type": "Point", "coordinates": [ 14.13216731367134, 56.10316307625687 ] } },
{ "type": "Feature", "properties": { "station": "NYMÖLLA", "WSO1_ID": 23315, "Country": "Sweden" }, "geometry": { "type": "Point", "coordinates": [ 14.091258564085527, 55.943051072903735 ] } },
{ "type": "Feature", "properties": { "station": "HALLAMÖLLA", "WSO1_ID": 24926, "Country": "Sweden" }, "geometry": { "type": "Point", "coordinates": [ 14.013693196167937, 55.708440464844294 ] } },
{ "type": "Feature", "properties": { "station": "TÅNEMÖLLA", "WSO1_ID": 27001, "Country": "Sweden" }, "geometry": { "type": "Point", "coordinates": [ 13.597187532794718, 55.4497841970704 ] } },
{ "type": "Feature", "properties": { "station": "TROLLEBERG", "WSO1_ID": 25149, "Country": "Sweden" }, "geometry": { "type": "Point", "coordinates": [ 13.147914299147683, 55.70198583887889 ] } },
{ "type": "Feature", "properties": { "station": "VOMBSJÖN ÖVRE", "WSO1_ID": 25085, "Country": "Sweden" }, "geometry": { "type": "Point", "coordinates": [ 13.557864352454226, 55.698505212750526 ] } },
{ "type": "Feature", "properties": { "station": "KLINGAVÄLSÅN", "WSO1_ID": 25567, "Country": "Sweden" }, "geometry": { "type": "Point", "coordinates": [ 13.541676462317003, 55.640071573993822 ] } },
{ "type": "Feature", "properties": { "station": "EGGELSTAD", "WSO1_ID": 25450, "Country": "Sweden" }, "geometry": { "type": "Point", "coordinates": [ 13.819244835328377, 55.645605377755231 ] } },
{ "type": "Feature", "properties": { "station": "ELLINGE", "WSO1_ID": 24267, "Country": "Sweden" }, "geometry": { "type": "Point", "coordinates": [ 13.284977060607558, 55.80974619837793 ] } },
{ "type": "Feature", "properties": { "station": "HÖGSMÖLLA", "WSO1_ID": 24468, "Country": "Sweden" }, "geometry": { "type": "Point", "coordinates": [ 13.079318757445879, 55.779650859298478 ] } },
{ "type": "Feature", "properties": { "station": "BRÖDDEBACKEN", "WSO1_ID": 23161, "Country": "Sweden" }, "geometry": { "type": "Point", "coordinates": [ 12.800968769611416, 55.995673923505819 ] } },
{ "type": "Feature", "properties": { "station": "ÅBROMÖLLA", "WSO1_ID": 22816, "Country": "Sweden" }, "geometry": { "type": "Point", "coordinates": [ 12.974950063005041, 56.071020608660106 ] } },
{ "type": "Feature", "properties": { "station": "KLIPPAN 2", "WSO1_ID": 22393, "Country": "Sweden" }, "geometry": { "type": "Point", "coordinates": [ 13.109884298087183, 56.143906547056581 ] } },
{ "type": "Feature", "properties": { "station": "HEÅKRA", "WSO1_ID": 24009, "Country": "Sweden" }, "geometry": { "type": "Point", "coordinates": [ 13.638194413624785, 55.845060905115368 ] } },
{ "type": "Feature", "properties": { "station": "FASTARP", "WSO1_ID": 22111, "Country": "Sweden" }, "geometry": { "type": "Point", "coordinates": [ 13.069033014348042, 56.202225225711686 ] } },
{ "type": "Feature", "properties": { "station": "RINGSJÖDAMMEN ÖVRE", "WSO1_ID": 23554, "Country": "Sweden" }, "geometry": { "type": "Point", "coordinates": [ 13.443629868733412, 55.914166160113609 ] } },
{ "type": "Feature", "properties": { "station": "FORSMÖLLANS KRV", "WSO1_ID": 22614, "Country": "Sweden" }, "geometry": { "type": "Point", "coordinates": [ 13.175844425392263, 56.10844486274064 ] } },
{ "type": "Feature", "properties": { "station": "RÖRVIK", "WSO1_ID": 1138863, "Country": "Sweden" }, "geometry": { "type": "Point", "coordinates": [ 14.591605865983318, 57.240932566322755 ] } },
{ "type": "Feature", "properties": { "station": "ÄNGABÄCKS KRV", "WSO1_ID": 1139314, "Country": "Sweden" }, "geometry": { "type": "Point", "coordinates": [ 13.511255326180635, 56.494520012996695 ] } },
{ "type": "Feature", "properties": { "station": "NOREKVARN", "WSO1_ID": 1139287, "Country": "Sweden" }, "geometry": { "type": "Point", "coordinates": [ 13.416699476291226, 56.53873626601132 ] } },
{ "type": "Feature", "properties": { "station": "LAHOLMS KRV", "WSO1_ID": 1139311, "Country": "Sweden" }, "geometry": { "type": "Point", "coordinates": [ 13.055665191421726, 56.516344109942054 ] } },
{ "type": "Feature", "properties": { "station": "GÅRDSILT", "WSO1_ID": 19761, "Country": "Sweden" }, "geometry": { "type": "Point", "coordinates": [ 13.151840328781132, 56.695629337609972 ] } },
{ "type": "Feature", "properties": { "station": "SIMLÅNGEN", "WSO1_ID": 19841, "Country": "Sweden" }, "geometry": { "type": "Point", "coordinates": [ 13.127205001556208, 56.715947147537456 ] } },
{ "type": "Feature", "properties": { "station": "NISSAFORS 2", "WSO1_ID": 1138428, "Country": "Sweden" }, "geometry": { "type": "Point", "coordinates": [ 13.631141902729832, 57.418850246745635 ] } },
{ "type": "Feature", "properties": { "station": "HULUBÄCKEN", "WSO1_ID": 1137678, "Country": "Sweden" }, "geometry": { "type": "Point", "coordinates": [ 13.732913939022191, 57.732265087593362 ] } },
{ "type": "Feature", "properties": { "station": "SNAPPARP", "WSO1_ID": 18999, "Country": "Sweden" }, "geometry": { "type": "Point", "coordinates": [ 13.099122863539893, 56.985524394879448 ] } },
{ "type": "Feature", "properties": { "station": "HILLARED", "WSO1_ID": 1138138, "Country": "Sweden" }, "geometry": { "type": "Point", "coordinates": [ 13.1723890108786, 57.576717555644485 ] } },
{ "type": "Feature", "properties": { "station": "ASSMEBRO", "WSO1_ID": 1138405, "Country": "Sweden" }, "geometry": { "type": "Point", "coordinates": [ 13.178560124619626, 57.460350737271632 ] } },
{ "type": "Feature", "properties": { "station": "PEPPARFORSEN", "WSO1_ID": 1139116, "Country": "Sweden" }, "geometry": { "type": "Point", "coordinates": [ 12.676295695991428, 57.096964366817012 ] } },
{ "type": "Feature", "properties": { "station": "YNGEREDSFORSEN", "WSO1_ID": 1139133, "Country": "Sweden" }, "geometry": { "type": "Point", "coordinates": [ 12.762938844067275, 57.032963580170161 ] } },
{ "type": "Feature", "properties": { "station": "ÅSBRO 3", "WSO1_ID": 1138889, "Country": "Sweden" }, "geometry": { "type": "Point", "coordinates": [ 12.31260161337806, 57.240039562605126 ] } },
{ "type": "Feature", "properties": { "station": "BOSGÅRDEN", "WSO1_ID": 1137476, "Country": "Sweden" }, "geometry": { "type": "Point", "coordinates": [ 13.055650227844229, 57.813236092176112 ] } },
{ "type": "Feature", "properties": { "station": "STENSJÖN 2", "WSO1_ID": 1138421, "Country": "Sweden" }, "geometry": { "type": "Point", "coordinates": [ 12.175371616746585, 57.49526568262943 ] } },
{ "type": "Feature", "properties": { "station": "HÄLLERED", "WSO1_ID": 1137580, "Country": "Sweden" }, "geometry": { "type": "Point", "coordinates": [ 12.735010357495458, 57.78870416366091 ] } },
{ "type": "Feature", "properties": { "station": "SOLVEDEN", "WSO1_ID": 1137440, "Country": "Sweden" }, "geometry": { "type": "Point", "coordinates": [ 12.355226588055782, 57.858348902003954 ] } },
{ "type": "Feature", "properties": { "station": "MOHOLM", "WSO1_ID": 1134682, "Country": "Sweden" }, "geometry": { "type": "Point", "coordinates": [ 14.058328487781912, 58.601075464214979 ] } },
{ "type": "Feature", "properties": { "station": "SUNDSTORP", "WSO1_ID": 1135865, "Country": "Sweden" }, "geometry": { "type": "Point", "coordinates": [ 13.043322435410795, 58.322272440976604 ] } },
{ "type": "Feature", "properties": { "station": "HALVORSBYN", "WSO1_ID": 1134727, "Country": "Sweden" }, "geometry": { "type": "Point", "coordinates": [ 12.355405328115094, 58.619430939044562 ] } },
{ "type": "Feature", "properties": { "station": "RÅDA KRV", "WSO1_ID": 1123653, "Country": "Sweden" }, "geometry": { "type": "Point", "coordinates": [ 13.597471353407371, 60.003348093396227 ] } },
{ "type": "Feature", "properties": { "station": "GULLSPÅNGS KRV", "WSO1_ID": 1132375, "Country": "Sweden" }, "geometry": { "type": "Point", "coordinates": [ 14.113977803871727, 58.986443575111117 ] } },
{ "type": "Feature", "properties": { "station": "TÖRNESTORP", "WSO1_ID": 1135702, "Country": "Sweden" }, "geometry": { "type": "Point", "coordinates": [ 13.934448941938182, 58.351367449076697 ] } },
{ "type": "Feature", "properties": { "station": "EDSFORSENS KRV", "WSO1_ID": 1122466, "Country": "Sweden" }, "geometry": { "type": "Point", "coordinates": [ 13.528438662974015, 60.065754336521678 ] } },
{ "type": "Feature", "properties": { "station": "LENNARTSFORS KRV", "WSO1_ID": 1130159, "Country": "Sweden" }, "geometry": { "type": "Point", "coordinates": [ 11.904310149867278, 59.31790971238906 ] } },
{ "type": "Feature", "properties": { "station": "LEFSEBÄCKEN", "WSO1_ID": 1131376, "Country": "Sweden" }, "geometry": { "type": "Point", "coordinates": [ 12.120610593890397, 59.169827316886703 ] } },
{ "type": "Feature", "properties": { "station": "LISJÖBÄCKEN", "WSO1_ID": 1123253, "Country": "Sweden" }, "geometry": { "type": "Point", "coordinates": [ 13.174248089575045, 60.041657090001152 ] } },
{ "type": "Feature", "properties": { "station": "VARGÖNS KRV", "WSO1_ID": 1135766, "Country": "Sweden" }, "geometry": { "type": "Point", "coordinates": [ 12.377467756028089, 58.355559744481603 ] } },
{ "type": "Feature", "properties": { "station": "BORGVIKS KRV", "WSO1_ID": 1129419, "Country": "Sweden" }, "geometry": { "type": "Point", "coordinates": [ 12.959590694109902, 59.354704532397029 ] } },
{ "type": "Feature", "properties": { "station": "SÄFFLE DAMM", "WSO1_ID": 1131187, "Country": "Sweden" }, "geometry": { "type": "Point", "coordinates": [ 12.92957088708714, 59.133597524790424 ] } },
{ "type": "Feature", "properties": { "station": "EDSVALLA KRV", "WSO1_ID": 1128677, "Country": "Sweden" }, "geometry": { "type": "Point", "coordinates": [ 13.213594485893646, 59.442463459084671 ] } },
{ "type": "Feature", "properties": { "station": "SPÅNGA KVARN", "WSO1_ID": 1136934, "Country": "Sweden" }, "geometry": { "type": "Point", "coordinates": [ 12.733839902839124, 58.007827054178883 ] } },
{ "type": "Feature", "properties": { "station": "EGGVENA", "WSO1_ID": 1136731, "Country": "Sweden" }, "geometry": { "type": "Point", "coordinates": [ 12.886980656998393, 58.085200913959426 ] } },
{ "type": "Feature", "properties": { "station": "MELLANKVARN", "WSO1_ID": 1134801, "Country": "Sweden" }, "geometry": { "type": "Point", "coordinates": [ 12.472584615967998, 58.600870773762672 ] } },
{ "type": "Feature", "properties": { "station": "HÖLJES KRV", "WSO1_ID": 1114232, "Country": "Sweden" }, "geometry": { "type": "Point", "coordinates": [ 12.546512941873559, 60.951964934281733 ] } },
{ "type": "Feature", "properties": { "station": "VAGGE", "WSO1_ID": 1126377, "Country": "Sweden" }, "geometry": { "type": "Point", "coordinates": [ 12.511826662133714, 59.718353602488534 ] } },
{ "type": "Feature", "properties": { "station": "GREA", "WSO1_ID": 1120406, "Country": "Sweden" }, "geometry": { "type": "Point", "coordinates": [ 12.992191588029961, 60.338168690018321 ] } },
{ "type": "Feature", "properties": { "station": "KVARNTORP", "WSO1_ID": 1127914, "Country": "Sweden" }, "geometry": { "type": "Point", "coordinates": [ 13.098197851638194, 59.561427679369132 ] } },
{ "type": "Feature", "properties": { "station": "ARNESTORP", "WSO1_ID": 1128943, "Country": "Sweden" }, "geometry": { "type": "Point", "coordinates": [ 13.957672434249144, 59.398734180406649 ] } },
{ "type": "Feature", "properties": { "station": "VALTORP", "WSO1_ID": 1136107, "Country": "Sweden" }, "geometry": { "type": "Point", "coordinates": [ 13.634656330642459, 58.234976589898274 ] } },
{ "type": "Feature", "properties": { "station": "SLÖTA", "WSO1_ID": 1135639, "Country": "Sweden" }, "geometry": { "type": "Point", "coordinates": [ 13.115348025243573, 58.383280150859335 ] } },
{ "type": "Feature", "properties": { "station": "ATTORP", "WSO1_ID": 1135767, "Country": "Sweden" }, "geometry": { "type": "Point", "coordinates": [ 13.354008524064874, 58.357806043359631 ] } },
{ "type": "Feature", "properties": { "station": "NORDMARK 2", "WSO1_ID": 1125128, "Country": "Sweden" }, "geometry": { "type": "Point", "coordinates": [ 14.077264964290794, 59.845925848141135 ] } },
{ "type": "Feature", "properties": { "station": "BJÖRKBORNS KRV", "WSO1_ID": 1129389, "Country": "Sweden" }, "geometry": { "type": "Point", "coordinates": [ 14.540326404110601, 59.337367852028862 ] } },
{ "type": "Feature", "properties": { "station": "BRATTFORSENS KRV", "WSO1_ID": 1128767, "Country": "Sweden" }, "geometry": { "type": "Point", "coordinates": [ 14.649232174963617, 59.3958439197621 ] } },
{ "type": "Feature", "properties": { "station": "JÖSSEFORS KRV", "WSO1_ID": 1126754, "Country": "Sweden" }, "geometry": { "type": "Point", "coordinates": [ 12.473699310863612, 59.670759940184688 ] } },
{ "type": "Feature", "properties": { "station": "NYBERGSSUND", "WSO1_ID": 1111307, "Country": "Norway" }, "geometry": { "type": "Point", "coordinates": [ 12.316663944189909, 61.26684288190382 ] } },
{ "type": "Feature", "properties": { "station": "MAGNOR", "WSO1_ID": 1124318, "Country": "Norway" }, "geometry": { "type": "Point", "coordinates": [ 12.200049765752368, 59.950248974639294 ] } },
{ "type": "Feature", "properties": { "station": "ARÖDÅN", "WSO1_ID": 1136228, "Country": "Sweden" }, "geometry": { "type": "Point", "coordinates": [ 11.937338995762786, 58.244839877226447 ] } },
{ "type": "Feature", "properties": { "station": "MUNKEDAL 2", "WSO1_ID": 1135425, "Country": "Sweden" }, "geometry": { "type": "Point", "coordinates": [ 11.686566787448159, 58.464598457852098 ] } },
{ "type": "Feature", "properties": { "station": "GUNNARSBO", "WSO1_ID": 1134617, "Country": "Sweden" }, "geometry": { "type": "Point", "coordinates": [ 11.709151837843265, 58.626859946516738 ] } },
{ "type": "Feature", "properties": { "station": "KROKFORS KVARN", "WSO1_ID": 1133191, "Country": "Sweden" }, "geometry": { "type": "Point", "coordinates": [ 11.818146008145328, 58.781569421360317 ] } },
{ "type": "Feature", "properties": { "station": "VALEX", "WSO1_ID": 1133184, "Country": "Sweden" }, "geometry": { "type": "Point", "coordinates": [ 11.368767654557749, 58.910895797798673 ] } },
{ "type": "Feature", "properties": { "station": "VASSBOTTEN", "WSO1_ID": 1133255, "Country": "Sweden" }, "geometry": { "type": "Point", "coordinates": [ 11.538965435796499, 58.876721409862881 ] } },
{ "type": "Feature", "properties": { "station": "FLÖTEMARKEN", "WSO1_ID": 1133842, "Country": "Sweden" }, "geometry": { "type": "Point", "coordinates": [ 11.655013817098659, 58.789267422284354 ] } },
{ "type": "Feature", "properties": { "station": "NEDALSFOSS KRV", "WSO1_ID": 1094903, "Country": "Sweden" }, "geometry": { "type": "Point", "coordinates": [ 12.111052900261502, 62.94992726717706 ] } },
{ "type": "Feature", "properties": { "station": "HÖRSNE", "WSO1_ID": 1137564, "Country": "Sweden" }, "geometry": { "type": "Point", "coordinates": [ 18.576966947505625, 57.548067654235936 ] } },
{ "type": "Feature", "properties": { "station": "HELLVI 2", "WSO1_ID": 995569, "Country": "Sweden" }, "geometry": { "type": "Point", "coordinates": [ 18.903258235329357, 57.779128866836963 ] } },
{ "type": "Feature", "properties": { "station": "LIFFEDARVE", "WSO1_ID": 1137610, "Country": "Sweden" }, "geometry": { "type": "Point", "coordinates": [ 18.200428795394121, 57.481069459978436 ] } },
{ "type": "Feature", "properties": { "station": "RACIBÓRZ-MIEDONIA", "WSO1_ID": 72102, "Country": "Poland" }, "geometry": { "type": "Point", "coordinates": [ 18.228061735592036, 50.114726285751736 ] } },
{ "type": "Feature", "properties": { "station": "SLUBICE", "WSO1_ID": 51043, "Country": "Poland" }, "geometry": { "type": "Point", "coordinates": [ 14.554875870311625, 52.349090922193248 ] } },
{ "type": "Feature", "properties": { "station": "GOZDOWICE", "WSO1_ID": 47659, "Country": "Poland" }, "geometry": { "type": "Point", "coordinates": [ 14.318797370776171, 52.762921836679574 ] } },
{ "type": "Feature", "properties": { "station": "STANISZCZE WIELKIE", "WSO1_ID": 65037, "Country": "Poland" }, "geometry": { "type": "Point", "coordinates": [ 18.329501136316555, 50.666842305483513 ] } },
{ "type": "Feature", "properties": { "station": "SKOROGOSZCZ", "WSO1_ID": 64623, "Country": "Poland" }, "geometry": { "type": "Point", "coordinates": [ 17.640722550083552, 50.748145500021892 ] } },
{ "type": "Feature", "properties": { "station": "KRASKÓW", "WSO1_ID": 63435, "Country": "Poland" }, "geometry": { "type": "Point", "coordinates": [ 16.572942227886273, 50.914182804916265 ] } },
{ "type": "Feature", "properties": { "station": "OSETNO", "WSO1_ID": 56381, "Country": "Poland" }, "geometry": { "type": "Point", "coordinates": [ 16.446527607319386, 51.635535516325135 ] } },
{ "type": "Feature", "properties": { "station": "ZAGAN", "WSO1_ID": 57223, "Country": "Poland" }, "geometry": { "type": "Point", "coordinates": [ 15.317000000037432, 51.616999996680448 ] } },
{ "type": "Feature", "properties": { "station": "DZIALOSZYN", "WSO1_ID": 59891, "Country": "Poland" }, "geometry": { "type": "Point", "coordinates": [ 18.865376252198331, 51.106949064957114 ] } },
{ "type": "Feature", "properties": { "station": "POZNAN (MOST ROCHA)", "WSO1_ID": 49769, "Country": "Poland" }, "geometry": { "type": "Point", "coordinates": [ 16.933000000112038, 52.382999997565641 ] } },
{ "type": "Feature", "properties": { "station": "GORZÓW WIELKOPOLSKI", "WSO1_ID": 47691, "Country": "Poland" }, "geometry": { "type": "Point", "coordinates": [ 15.215737559727827, 52.725381338229809 ] } },
{ "type": "Feature", "properties": { "station": "BOGUSLAW", "WSO1_ID": 53735, "Country": "Poland" }, "geometry": { "type": "Point", "coordinates": [ 17.949999999082152, 51.882999997272904 ] } },
{ "type": "Feature", "properties": { "station": "PAKOSC", "WSO1_ID": 45174, "Country": "Poland" }, "geometry": { "type": "Point", "coordinates": [ 18.091583395314984, 52.801618791324472 ] } },
{ "type": "Feature", "properties": { "station": "NOWE DREZDENKO", "WSO1_ID": 46098, "Country": "Poland" }, "geometry": { "type": "Point", "coordinates": [ 15.833000000741482, 52.849999997609459 ] } },
{ "type": "Feature", "properties": { "station": "PILA", "WSO1_ID": 43146, "Country": "Poland" }, "geometry": { "type": "Point", "coordinates": [ 16.732999999505765, 53.149999997709529 ] } },
{ "type": "Feature", "properties": { "station": "DRAWSKO POMORSKIE", "WSO1_ID": 40125, "Country": "Poland" }, "geometry": { "type": "Point", "coordinates": [ 15.80000000003322, 53.516999998099131 ] } },
{ "type": "Feature", "properties": { "station": "GOLENIÓW", "WSO1_ID": 40613, "Country": "Poland" }, "geometry": { "type": "Point", "coordinates": [ 14.834957240117387, 53.547190058869859 ] } },
{ "type": "Feature", "properties": { "station": "TRZEBIATÓW", "WSO1_ID": 34605, "Country": "Poland" }, "geometry": { "type": "Point", "coordinates": [ 15.285319436421604, 54.13910053351298 ] } },
{ "type": "Feature", "properties": { "station": "SLUPSK", "WSO1_ID": 31692, "Country": "Poland" }, "geometry": { "type": "Point", "coordinates": [ 17.032999999640118, 54.466999997122826 ] } },
{ "type": "Feature", "properties": { "station": "NOWY BIERUN", "WSO1_ID": 71767, "Country": "Poland" }, "geometry": { "type": "Point", "coordinates": [ 19.182999999902062, 50.049999996689479 ] } },
{ "type": "Feature", "properties": { "station": "SANDOMIERZ", "WSO1_ID": 61491, "Country": "Poland" }, "geometry": { "type": "Point", "coordinates": [ 21.750111759509327, 50.672434370962279 ] } },
{ "type": "Feature", "properties": { "station": "WARSZAWA-NADWILANÓWKA ŒL", "WSO1_ID": 48691, "Country": "Poland" }, "geometry": { "type": "Point", "coordinates": [ 21.108066081700972, 52.189729702477159 ] } },
{ "type": "Feature", "properties": { "station": "TCZEW", "WSO1_ID": 33578, "Country": "Poland" }, "geometry": { "type": "Point", "coordinates": [ 18.815879716857541, 54.066206281862414 ] } },
{ "type": "Feature", "properties": { "station": "JELEN", "WSO1_ID": 70188, "Country": "Poland" }, "geometry": { "type": "Point", "coordinates": [ 19.252582995544131, 50.149873637728035 ] } },
{ "type": "Feature", "properties": { "station": "OSWIECIM", "WSO1_ID": 71905, "Country": "Poland" }, "geometry": { "type": "Point", "coordinates": [ 19.217000000551693, 50.03299999697542 ] } },
{ "type": "Feature", "properties": { "station": "WADOWICE", "WSO1_ID": 73575, "Country": "Poland" }, "geometry": { "type": "Point", "coordinates": [ 19.509170102209914, 49.866106892355027 ] } },
{ "type": "Feature", "properties": { "station": "PROSZÓWKI", "WSO1_ID": 71220, "Country": "Poland" }, "geometry": { "type": "Point", "coordinates": [ 20.424870249590978, 49.991063246326718 ] } },
{ "type": "Feature", "properties": { "station": "NOWY SACZ", "WSO1_ID": 74886, "Country": "Poland" }, "geometry": { "type": "Point", "coordinates": [ 20.682999998842906, 49.61699999720588 ] } },
{ "type": "Feature", "properties": { "station": "STARY SACZ", "WSO1_ID": 75615, "Country": "Poland" }, "geometry": { "type": "Point", "coordinates": [ 20.661078789234985, 49.565396357420966 ] } },
{ "type": "Feature", "properties": { "station": "PINCZÓW", "WSO1_ID": 64630, "Country": "Poland" }, "geometry": { "type": "Point", "coordinates": [ 20.529046123810438, 50.510091406967618 ] } },
{ "type": "Feature", "properties": { "station": "ZOLKÓW", "WSO1_ID": 73092, "Country": "Poland" }, "geometry": { "type": "Point", "coordinates": [ 21.466432706558475, 49.718465912415063 ] } },
{ "type": "Feature", "properties": { "station": "PRZEMYSL", "WSO1_ID": 70796, "Country": "Poland" }, "geometry": { "type": "Point", "coordinates": [ 22.766999999867334, 49.782999996525852 ] } },
{ "type": "Feature", "properties": { "station": "RADOMYSL", "WSO1_ID": 61434, "Country": "Poland" }, "geometry": { "type": "Point", "coordinates": [ 21.932329465117633, 50.671735752060442 ] } },
{ "type": "Feature", "properties": { "station": "TRYNCZA", "WSO1_ID": 66630, "Country": "Poland" }, "geometry": { "type": "Point", "coordinates": [ 22.539170907600575, 50.150744723902051 ] } },
{ "type": "Feature", "properties": { "station": "KUNÓW", "WSO1_ID": 59293, "Country": "Poland" }, "geometry": { "type": "Point", "coordinates": [ 21.284732436127111, 50.958984412126462 ] } },
{ "type": "Feature", "properties": { "station": "KOSMIN", "WSO1_ID": 53184, "Country": "Poland" }, "geometry": { "type": "Point", "coordinates": [ 21.990343579376834, 51.568430888094333 ] } },
{ "type": "Feature", "properties": { "station": "PRZEDBÓRZ", "WSO1_ID": 59191, "Country": "Poland" }, "geometry": { "type": "Point", "coordinates": [ 19.866999998901878, 51.082999997283096 ] } },
{ "type": "Feature", "properties": { "station": "BIALOBRZEGI", "WSO1_ID": 53367, "Country": "Poland" }, "geometry": { "type": "Point", "coordinates": [ 20.957373289285034, 51.654202693481849 ] } },
{ "type": "Feature", "properties": { "station": "SURAZ", "WSO1_ID": 40228, "Country": "Poland" }, "geometry": { "type": "Point", "coordinates": [ 22.935383663523215, 52.956254982821264 ] } },
{ "type": "Feature", "properties": { "station": "OSTROLEKA", "WSO1_ID": 40085, "Country": "Poland" }, "geometry": { "type": "Point", "coordinates": [ 21.567000000047393, 53.082999998271326 ] } },
{ "type": "Feature", "properties": { "station": "BURZYN", "WSO1_ID": 37905, "Country": "Poland" }, "geometry": { "type": "Point", "coordinates": [ 22.46045970283901, 53.276250447707262 ] } },
{ "type": "Feature", "properties": { "station": "WLODAWA", "WSO1_ID": 51743, "Country": "Poland" }, "geometry": { "type": "Point", "coordinates": [ 23.567000000139938, 51.549999997002779 ] } },
{ "type": "Feature", "properties": { "station": "WYSZKÓW", "WSO1_ID": 44834, "Country": "Poland" }, "geometry": { "type": "Point", "coordinates": [ 21.450000000298942, 52.582999997568137 ] } },
{ "type": "Feature", "properties": { "station": "MALOWA GÓRA", "WSO1_ID": 47236, "Country": "Poland" }, "geometry": { "type": "Point", "coordinates": [ 23.467000000324205, 52.099999996825609 ] } },
{ "type": "Feature", "properties": { "station": "CIEKSYN", "WSO1_ID": 45702, "Country": "Poland" }, "geometry": { "type": "Point", "coordinates": [ 20.637649382990613, 52.566918974464947 ] } },
{ "type": "Feature", "properties": { "station": "SOCHACZEW", "WSO1_ID": 49081, "Country": "Poland" }, "geometry": { "type": "Point", "coordinates": [ 20.23192207938428, 52.223374683789686 ] } },
{ "type": "Feature", "properties": { "station": "ELGISZEWO", "WSO1_ID": 42497, "Country": "Poland" }, "geometry": { "type": "Point", "coordinates": [ 18.924599880005058, 53.061524656777735 ] } },
{ "type": "Feature", "properties": { "station": "TUCHOLA", "WSO1_ID": 38521, "Country": "Poland" }, "geometry": { "type": "Point", "coordinates": [ 17.899999999995611, 53.566999997823316 ] } },
{ "type": "Feature", "properties": { "station": "SEPOPOL", "WSO1_ID": 31160, "Country": "Poland" }, "geometry": { "type": "Point", "coordinates": [ 21.001159217517237, 54.260968130982853 ] } },
{ "type": "Feature", "properties": { "station": "PROSNA", "WSO1_ID": 31215, "Country": "Poland" }, "geometry": { "type": "Point", "coordinates": [ 21.085264549870292, 54.232508949094637 ] } },
{ "type": "Feature", "properties": { "station": "ELVERUM", "WSO1_ID": 1115004, "Country": "Norway" }, "geometry": { "type": "Point", "coordinates": [ 11.559999999644701, 60.879999998545877 ] } },
{ "type": "Feature", "properties": { "station": "LOSNA", "WSO1_ID": 1110912, "Country": "Norway" }, "geometry": { "type": "Point", "coordinates": [ 10.277499999457453, 61.333399998942376 ] } },
{ "type": "Feature", "properties": { "station": "OEVRE STOCKHOLM", "WSO1_ID": 1128399, "Country": "Sweden" }, "geometry": { "type": "Point", "coordinates": [ 18.062683350712248, 59.323276703903673 ] } },
{ "type": "Feature", "properties": { "station": "HORNINDALSVATN", "WSO1_ID": 1103781, "Country": "Norway" }, "geometry": { "type": "Point", "coordinates": [ 6.089999999145297, 61.919999999492816 ] } },
{ "type": "Feature", "properties": { "station": "LANGNES", "WSO1_ID": 1127789, "Country": "Norway" }, "geometry": { "type": "Point", "coordinates": [ 11.118099999137105, 59.609199999026835 ] } },
{ "type": "Feature", "properties": { "station": "MALANGSFOSS", "WSO1_ID": 1061699, "Country": "Norway" }, "geometry": { "type": "Point", "coordinates": [ 18.643504037654264, 69.033384013005659 ] } },
{ "type": "Feature", "properties": { "station": "DOVIKFOSS", "WSO1_ID": 1125345, "Country": "Norway" }, "geometry": { "type": "Point", "coordinates": [ 9.908000000665822, 59.880499998521863 ] } },
{ "type": "Feature", "properties": { "station": "HAGA BRU", "WSO1_ID": 1094456, "Country": "Norway" }, "geometry": { "type": "Point", "coordinates": [ 10.300015532296797, 63.051261405037657 ] } },
{ "type": "Feature", "properties": { "station": "KOBBVATN", "WSO1_ID": 1069127, "Country": "Norway" }, "geometry": { "type": "Point", "coordinates": [ 15.982977632235787, 67.599973781269483 ] } },
{ "type": "Feature", "properties": { "station": "JONDAL", "WSO1_ID": 1126936, "Country": "Norway" }, "geometry": { "type": "Point", "coordinates": [ 9.581837480523477, 59.708133657330904 ] } },
{ "type": "Feature", "properties": { "station": "LALM", "WSO1_ID": 1105278, "Country": "Norway" }, "geometry": { "type": "Point", "coordinates": [ 9.269999999818968, 61.829999998820263 ] } },
{ "type": "Feature", "properties": { "station": "ASTED BRO", "WSO1_ID": 1138560, "Country": "Denmark" }, "geometry": { "type": "Point", "coordinates": [ 10.130000000807362, 57.449999999209076 ] } },
{ "type": "Feature", "properties": { "station": "NESET", "WSO1_ID": 1129955, "Country": "Norway" }, "geometry": { "type": "Point", "coordinates": [ 8.519821682419321, 59.363642179191558 ] } },
{ "type": "Feature", "properties": { "station": "ENGESETVATN", "WSO1_ID": 1098191, "Country": "Norway" }, "geometry": { "type": "Point", "coordinates": [ 6.62000000076239, 62.529999998159504 ] } },
{ "type": "Feature", "properties": { "station": "LAKFORS", "WSO1_ID": 1079687, "Country": "Norway" }, "geometry": { "type": "Point", "coordinates": [ 13.290699997512917, 65.621499998465438 ] } },
{ "type": "Feature", "properties": { "station": "HEISEL", "WSO1_ID": 1136259, "Country": "Norway" }, "geometry": { "type": "Point", "coordinates": [ 7.951400001475331, 58.247599997523778 ] } },
{ "type": "Feature", "properties": { "station": "SKARNES", "WSO1_ID": 1121431, "Country": "Norway" }, "geometry": { "type": "Point", "coordinates": [ 11.677499999867479, 60.254299998254545 ] } },
{ "type": "Feature", "properties": { "station": "UNKERVATN", "WSO1_ID": 1080181, "Country": "Norway" }, "geometry": { "type": "Point", "coordinates": [ 14.220000000067433, 65.499999998499518 ] } },
{ "type": "Feature", "properties": { "station": "MEVATN", "WSO1_ID": 1060948, "Country": "Norway" }, "geometry": { "type": "Point", "coordinates": [ 17.782516123443109, 69.231200588800121 ] } },
{ "type": "Feature", "properties": { "station": "BERTNEM", "WSO1_ID": 1085762, "Country": "Norway" }, "geometry": { "type": "Point", "coordinates": [ 12.05870000076677, 64.468099999266244 ] } },
{ "type": "Feature", "properties": { "station": "KISTA", "WSO1_ID": 1057582, "Country": "Norway" }, "geometry": { "type": "Point", "coordinates": [ 23.516800002884771, 69.826299998590429 ] } },
{ "type": "Feature", "properties": { "station": "UMEAE", "WSO1_ID": 1087873, "Country": "Sweden" }, "geometry": { "type": "Point", "coordinates": [ 20.271753240859759, 63.819334647134347 ] } },
{ "type": "Feature", "properties": { "station": "SMALININKAI", "WSO1_ID": 25453, "Country": "Lithuania" }, "geometry": { "type": "Point", "coordinates": [ 22.57970000059856, 55.075599998263733 ] } },
{ "type": "Feature", "properties": { "station": "VLOTHO", "WSO1_ID": 52750, "Country": "Germany" }, "geometry": { "type": "Point", "coordinates": [ 8.861999999828786, 52.175999998414078 ] } },
{ "type": "Feature", "properties": { "station": "HANN.-MUENDEN", "WSO1_ID": 59904, "Country": "Germany" }, "geometry": { "type": "Point", "coordinates": [ 9.640999999541155, 51.425999997599469 ] } },
{ "type": "Feature", "properties": { "station": "BODENWERDER", "WSO1_ID": 54962, "Country": "Germany" }, "geometry": { "type": "Point", "coordinates": [ 9.516000001735238, 51.97299999688628 ] } },
{ "type": "Feature", "properties": { "station": "DRESDEN", "WSO1_ID": 63071, "Country": "Germany" }, "geometry": { "type": "Point", "coordinates": [ 13.738999998653478, 51.059999997479714 ] } },
{ "type": "Feature", "properties": { "station": "INTSCHEDE", "WSO1_ID": 46353, "Country": "Germany" }, "geometry": { "type": "Point", "coordinates": [ 9.125000000491143, 52.963999997577673 ] } },
{ "type": "Feature", "properties": { "station": "NEU-DARCHAU", "WSO1_ID": 43970, "Country": "Germany" }, "geometry": { "type": "Point", "coordinates": [ 10.88900000067094, 53.231999997722568 ] } },
{ "type": "Feature", "properties": { "station": "DECIN", "WSO1_ID": 66020, "Country": "Czech Republic" }, "geometry": { "type": "Point", "coordinates": [ 14.229999999855188, 50.789999997951597 ] } },
{ "type": "Feature", "properties": { "station": "CELLE", "WSO1_ID": 49558, "Country": "Germany" }, "geometry": { "type": "Point", "coordinates": [ 10.062999999593583, 52.621999997690303 ] } },
{ "type": "Feature", "properties": { "station": "BARBY", "WSO1_ID": 54717, "Country": "Germany" }, "geometry": { "type": "Point", "coordinates": [ 11.883000000269915, 51.990999997163748 ] } },
{ "type": "Feature", "properties": { "station": "WITTENBERGE", "WSO1_ID": 46011, "Country": "Germany" }, "geometry": { "type": "Point", "coordinates": [ 11.751999999167669, 52.989999997183723 ] } },
{ "type": "Feature", "properties": { "station": "GREVEN", "WSO1_ID": 53596, "Country": "Germany" }, "geometry": { "type": "Point", "coordinates": [ 7.602999999648294, 52.093999997093682 ] } },
{ "type": "Feature", "properties": { "station": "NEKOR", "WSO1_ID": 73584, "Country": "Czech Republic" }, "geometry": { "type": "Point", "coordinates": [ 16.550000001194459, 50.069999997207574 ] } },
{ "type": "Feature", "properties": { "station": "DASICE", "WSO1_ID": 74753, "Country": "Czech Republic" }, "geometry": { "type": "Point", "coordinates": [ 15.910000000365487, 50.039999997302942 ] } },
{ "type": "Feature", "properties": { "station": "TURICE", "WSO1_ID": 72426, "Country": "Czech Republic" }, "geometry": { "type": "Point", "coordinates": [ 14.780000000269204, 50.23999999731906 ] } },
{ "type": "Feature", "properties": { "station": "GOERLITZ", "WSO1_ID": 61419, "Country": "Germany" }, "geometry": { "type": "Point", "coordinates": [ 14.995100000807668, 51.163799997353294 ] } },
{ "type": "Feature", "properties": { "station": "GUNTERSHAUSEN", "WSO1_ID": 62020, "Country": "Germany" }, "geometry": { "type": "Point", "coordinates": [ 9.469000000449029, 51.226999997147004 ] } },
{ "type": "Feature", "properties": { "station": "ROTENBURG", "WSO1_ID": 64527, "Country": "Germany" }, "geometry": { "type": "Point", "coordinates": [ 9.720000000727952, 51.003999996441173 ] } },
{ "type": "Feature", "properties": { "station": "BOHUMIN", "WSO1_ID": 73793, "Country": "Czech Republic" }, "geometry": { "type": "Point", "coordinates": [ 18.329999999774362, 49.919999996221243 ] } },
{ "type": "Feature", "properties": { "station": "EISENHUETTENSTADT", "WSO1_ID": 51922, "Country": "Germany" }, "geometry": { "type": "Point", "coordinates": [ 14.688000001070872, 52.152999997008237 ] } },
{ "type": "Feature", "properties": { "station": "HOHENSAATEN-FINOW AP", "WSO1_ID": 46533, "Country": "Germany" }, "geometry": { "type": "Point", "coordinates": [ 14.141999999809354, 52.863999996714263 ] } },
{ "type": "Feature", "properties": { "station": "AASTEDBRO", "WSO1_ID": 23958, "Country": "Denmark" }, "geometry": { "type": "Point", "coordinates": [ 9.620000001372326, 55.899999997817027 ] } },
{ "type": "Feature", "properties": { "station": "TVILUMBRO", "WSO1_ID": 21925, "Country": "Denmark" }, "geometry": { "type": "Point", "coordinates": [ 9.670000000070077, 56.239999998453847 ] } },
{ "type": "Feature", "properties": { "station": "LILLE LINDE", "WSO1_ID": 27899, "Country": "Denmark" }, "geometry": { "type": "Point", "coordinates": [ 12.21999999891827, 55.32999999793514 ] } },
{ "type": "Feature", "properties": { "station": "NEAR BROBY", "WSO1_ID": 28323, "Country": "Denmark" }, "geometry": { "type": "Point", "coordinates": [ 10.228789301537509, 55.268587420473622 ] } },
{ "type": "Feature", "properties": { "station": "ELKAER BRO", "WSO1_ID": 18941, "Country": "Denmark" }, "geometry": { "type": "Point", "coordinates": [ 9.919999998567912, 57.15999999843239 ] } },
{ "type": "Feature", "properties": { "station": "SKIBBY", "WSO1_ID": 22630, "Country": "Denmark" }, "geometry": { "type": "Point", "coordinates": [ 10.040000000011204, 56.139999997474163 ] } },
{ "type": "Feature", "properties": { "station": "BROMOELLE", "WSO1_ID": 26330, "Country": "Denmark" }, "geometry": { "type": "Point", "coordinates": [ 11.411453499127159, 55.58447628647361 ] } },
{ "type": "Feature", "properties": { "station": "BREDEBRO", "WSO1_ID": 29155, "Country": "Denmark" }, "geometry": { "type": "Point", "coordinates": [ 8.829999999518904, 55.059999997682844 ] } },
{ "type": "Feature", "properties": { "station": "AHLERGAARDE", "WSO1_ID": 23597, "Country": "Denmark" }, "geometry": { "type": "Point", "coordinates": [ 8.720000001340013, 55.949999997792723 ] } },
{ "type": "Feature", "properties": { "station": "MAGDEBURG-STROMBRUECKE", "WSO1_ID": 53436, "Country": "Germany" }, "geometry": { "type": "Point", "coordinates": [ 11.643999998719417, 52.134999998074761 ] } },
{ "type": "Feature", "properties": { "station": "SCHMITTLOTHEIM", "WSO1_ID": 62509, "Country": "Germany" }, "geometry": { "type": "Point", "coordinates": [ 8.898000000192294, 51.15599999755355 ] } },
{ "type": "Feature", "properties": { "station": "RHEINE UNTERSCHLEUSE UP", "WSO1_ID": 51234, "Country": "Germany" }, "geometry": { "type": "Point", "coordinates": [ 7.434000000746202, 52.287999996907537 ] } },
{ "type": "Feature", "properties": { "station": "CHMELNICA", "WSO1_ID": 78433, "Country": "Slovakia" }, "geometry": { "type": "Point", "coordinates": [ 20.731600000146845, 49.288999995742508 ] } },
{ "type": "Feature", "properties": { "station": "CALBE-GRIZEHNE", "WSO1_ID": 55103, "Country": "Germany" }, "geometry": { "type": "Point", "coordinates": [ 11.788164083680151, 51.896721162662708 ] } },
{ "type": "Feature", "properties": { "station": "LINDENBORG BRO", "WSO1_ID": 19317, "Country": "Denmark" }, "geometry": { "type": "Point", "coordinates": [ 10.033300000735517, 56.899999997847075 ] } },
{ "type": "Feature", "properties": { "station": "PORTA", "WSO1_ID": 52368, "Country": "Germany" }, "geometry": { "type": "Point", "coordinates": [ 8.921999999752741, 52.248999997456011 ] } },
{ "type": "Feature", "properties": { "station": "AKEN", "WSO1_ID": 55781, "Country": "Germany" }, "geometry": { "type": "Point", "coordinates": [ 12.059348542509385, 51.860218543384462 ] } },
{ "type": "Feature", "properties": { "station": "TORGAU 1", "WSO1_ID": 57997, "Country": "Germany" }, "geometry": { "type": "Point", "coordinates": [ 13.011000000189711, 51.558999997193574 ] } },
{ "type": "Feature", "properties": { "station": "KETZIN", "WSO1_ID": 50465, "Country": "Germany" }, "geometry": { "type": "Point", "coordinates": [ 12.849999999549539, 52.48329999745814 ] } },
{ "type": "Feature", "properties": { "station": "BEROUN", "WSO1_ID": 76025, "Country": "Czech Republic" }, "geometry": { "type": "Point", "coordinates": [ 14.085465673484325, 49.960633998144836 ] } },
{ "type": "Feature", "properties": { "station": "TREIA", "WSO1_ID": 32703, "Country": "Germany" }, "geometry": { "type": "Point", "coordinates": [ 9.317000000048136, 54.513999997640092 ] } },
{ "type": "Feature", "properties": { "station": "RETHEM", "WSO1_ID": 48278, "Country": "Germany" }, "geometry": { "type": "Point", "coordinates": [ 9.383000000171329, 52.788999997565732 ] } },
{ "type": "Feature", "properties": { "station": "MARKLENDORF", "WSO1_ID": 49087, "Country": "Germany" }, "geometry": { "type": "Point", "coordinates": [ 9.703999999058921, 52.681999997026267 ] } },
{ "type": "Feature", "properties": { "station": "HELMINGHAUSEN", "WSO1_ID": 60485, "Country": "Germany" }, "geometry": { "type": "Point", "coordinates": [ 8.730999999954291, 51.380999996608935 ] } },
{ "type": "Feature", "properties": { "station": "AFFOLDERN", "WSO1_ID": 62640, "Country": "Germany" }, "geometry": { "type": "Point", "coordinates": [ 9.085000000621479, 51.163999997174514 ] } },
{ "type": "Feature", "properties": { "station": "HERRENHAUSEN", "WSO1_ID": 51337, "Country": "Germany" }, "geometry": { "type": "Point", "coordinates": [ 9.676000000355836, 52.387999997715475 ] } },
{ "type": "Feature", "properties": { "station": "SCHWARMSTEDT", "WSO1_ID": 48784, "Country": "Germany" }, "geometry": { "type": "Point", "coordinates": [ 9.60399999925208, 52.682999997104659 ] } },
{ "type": "Feature", "properties": { "station": "LETZTER HELLER", "WSO1_ID": 60281, "Country": "Germany" }, "geometry": { "type": "Point", "coordinates": [ 9.709000000732662, 51.40799999709516 ] } },
{ "type": "Feature", "properties": { "station": "KARLSHAFEN", "WSO1_ID": 57994, "Country": "Germany" }, "geometry": { "type": "Point", "coordinates": [ 9.437999999570934, 51.647999997374072 ] } },
{ "type": "Feature", "properties": { "station": "WAHMBECK", "WSO1_ID": 58172, "Country": "Germany" }, "geometry": { "type": "Point", "coordinates": [ 9.519999999619607, 51.624999998195399 ] } },
{ "type": "Feature", "properties": { "station": "VERSEN", "WSO1_ID": 46956, "Country": "Germany" }, "geometry": { "type": "Point", "coordinates": [ 7.240000000830578, 52.739999997371235 ] } },
{ "type": "Feature", "properties": { "station": "STAVNAGER", "WSO1_ID": 28027, "Country": "Denmark" }, "geometry": { "type": "Point", "coordinates": [ 8.8799999989292, 55.319999998190056 ] } },
{ "type": "Feature", "properties": { "station": "HOLLOESE MOELLE", "WSO1_ID": 27952, "Country": "Denmark" }, "geometry": { "type": "Point", "coordinates": [ 11.679999998457518, 55.299999998279461 ] } },
{ "type": "Feature", "properties": { "station": "ALLENDORF", "WSO1_ID": 61584, "Country": "Germany" }, "geometry": { "type": "Point", "coordinates": [ 9.98000000036402, 51.269999996743387 ] } },
{ "type": "Feature", "properties": { "station": "AARUP", "WSO1_ID": 19210, "Country": "Denmark" }, "geometry": { "type": "Point", "coordinates": [ 8.484053929177122, 56.903861977747177 ] } },
{ "type": "Feature", "properties": { "station": "RUDOLSTADT", "WSO1_ID": 68132, "Country": "Germany" }, "geometry": { "type": "Point", "coordinates": [ 11.372429580090646, 50.716158645464411 ] } },
{ "type": "Feature", "properties": { "station": "KARTENA", "WSO1_ID": 20893, "Country": "Lithuania" }, "geometry": { "type": "Point", "coordinates": [ 21.476899999541853, 55.921099997775052 ] } },
{ "type": "Feature", "properties": { "station": "LAUCHA", "WSO1_ID": 61945, "Country": "Germany" }, "geometry": { "type": "Point", "coordinates": [ 11.685000000198608, 51.22699999672016 ] } },
{ "type": "Feature", "properties": { "station": "GREBENAU", "WSO1_ID": 62582, "Country": "Germany" }, "geometry": { "type": "Point", "coordinates": [ 9.498000000737962, 51.192999997269631 ] } },
{ "type": "Feature", "properties": { "station": "HELDRA", "WSO1_ID": 63126, "Country": "Germany" }, "geometry": { "type": "Point", "coordinates": [ 10.197000000000818, 51.124999996512528 ] } },
{ "type": "Feature", "properties": { "station": "WITTENBERG", "WSO1_ID": 55782, "Country": "Germany" }, "geometry": { "type": "Point", "coordinates": [ 12.646999999327837, 51.861999998204368 ] } },
{ "type": "Feature", "properties": { "station": "RATHENOW HAUPTSCHLEUSE UP", "WSO1_ID": 49422, "Country": "Germany" }, "geometry": { "type": "Point", "coordinates": [ 12.316999999193783, 52.604999997219771 ] } },
{ "type": "Feature", "properties": { "station": "DOERVERDEN", "WSO1_ID": 46545, "Country": "Germany" }, "geometry": { "type": "Point", "coordinates": [ 9.21100000010266, 52.851999998194799 ] } },
{ "type": "Feature", "properties": { "station": "LIEBENAU", "WSO1_ID": 49612, "Country": "Germany" }, "geometry": { "type": "Point", "coordinates": [ 9.112999999163469, 52.593999996931579 ] } },
{ "type": "Feature", "properties": { "station": "BIENENBUETTEL", "WSO1_ID": 44770, "Country": "Germany" }, "geometry": { "type": "Point", "coordinates": [ 10.463999999591596, 53.149999997923217 ] } },
{ "type": "Feature", "properties": { "station": "HALLE TROTHA", "WSO1_ID": 59074, "Country": "Germany" }, "geometry": { "type": "Point", "coordinates": [ 11.991334073972522, 51.518457010728831 ] } },
{ "type": "Feature", "properties": { "station": "NEW BRIDGE", "WSO1_ID": 115426, "Country": "Ireland" }, "geometry": { "type": "Point", "coordinates": [ -7.981620018779029, 52.49672870593524 ] } },
{ "type": "Feature", "properties": { "station": "GUBEN 2", "WSO1_ID": 54057, "Country": "Germany" }, "geometry": { "type": "Point", "coordinates": [ 14.707000001368522, 51.968999997321625 ] } },
{ "type": "Feature", "properties": { "station": "TANGERMUENDE", "WSO1_ID": 50007, "Country": "Germany" }, "geometry": { "type": "Point", "coordinates": [ 11.979999999713863, 52.549999997787559 ] } },
{ "type": "Feature", "properties": { "station": "BAD DUEBEN", "WSO1_ID": 58236, "Country": "Germany" }, "geometry": { "type": "Point", "coordinates": [ 12.580999999369379, 51.590999997813476 ] } },
{ "type": "Feature", "properties": { "station": "BAD LIEBENWERDA", "WSO1_ID": 58717, "Country": "Germany" }, "geometry": { "type": "Point", "coordinates": [ 13.394999999660447, 51.518999997057527 ] } },
{ "type": "Feature", "properties": { "station": "UKMERGE", "WSO1_ID": 22703, "Country": "Lithuania" }, "geometry": { "type": "Point", "coordinates": [ 24.749999999773543, 55.249999997758131 ] } },
{ "type": "Feature", "properties": { "station": "BERLIN MUEHLENDAMM OP", "WSO1_ID": 50234, "Country": "Germany" }, "geometry": { "type": "Point", "coordinates": [ 13.446465250607753, 52.500653192513916 ] } },
{ "type": "Feature", "properties": { "station": "JONAVA", "WSO1_ID": 24064, "Country": "Lithuania" }, "geometry": { "type": "Point", "coordinates": [ 24.283299998952895, 55.083299998132993 ] } },
{ "type": "Feature", "properties": { "station": "KALVARIJA", "WSO1_ID": 29065, "Country": "Lithuania" }, "geometry": { "type": "Point", "coordinates": [ 23.233300000233026, 54.399999997520844 ] } },
{ "type": "Feature", "properties": { "station": "KUDIRKOS NAUMIESTIS", "WSO1_ID": 27346, "Country": "Lithuania" }, "geometry": { "type": "Point", "coordinates": [ 22.865012819866514, 54.777033327521416 ] } },
{ "type": "Feature", "properties": { "station": "DALUM", "WSO1_ID": 49498, "Country": "Germany" }, "geometry": { "type": "Point", "coordinates": [ 7.248999998891343, 52.595999997444792 ] } },
{ "type": "Feature", "properties": { "station": "DASIUNAI", "WSO1_ID": 23821, "Country": "Lithuania" }, "geometry": { "type": "Point", "coordinates": [ 23.825568989917791, 55.170459046821243 ] } },
{ "type": "Feature", "properties": { "station": "MIKUZIAI", "WSO1_ID": 22776, "Country": "Lithuania" }, "geometry": { "type": "Point", "coordinates": [ 21.518824636044073, 55.536626201877105 ] } },
{ "type": "Feature", "properties": { "station": "PISEK", "WSO1_ID": 80149, "Country": "Czech Republic" }, "geometry": { "type": "Point", "coordinates": [ 14.148723856904022, 49.307290374194729 ] } },
{ "type": "Feature", "properties": { "station": "ZRUC NAD SAZAVOU", "WSO1_ID": 77966, "Country": "Czech Republic" }, "geometry": { "type": "Point", "coordinates": [ 15.099999999324055, 49.739999996699183 ] } },
{ "type": "Feature", "properties": { "station": "ZELEZNY BROD", "WSO1_ID": 67652, "Country": "Czech Republic" }, "geometry": { "type": "Point", "coordinates": [ 15.279999999262445, 50.639999997115339 ] } },
{ "type": "Feature", "properties": { "station": "GROSSE TRAENKE. WEHR UP", "WSO1_ID": 51080, "Country": "Germany" }, "geometry": { "type": "Point", "coordinates": [ 13.997000000374896, 52.367999997344938 ] } },
{ "type": "Feature", "properties": { "station": "SANTAKAI", "WSO1_ID": 25863, "Country": "Lithuania" }, "geometry": { "type": "Point", "coordinates": [ 25.657589043017232, 54.668003082262892 ] } },
{ "type": "Feature", "properties": { "station": "SPREMBERG", "WSO1_ID": 57842, "Country": "Germany" }, "geometry": { "type": "Point", "coordinates": [ 14.369999999419628, 51.576999997005302 ] } },
{ "type": "Feature", "properties": { "station": "FEILDES WEIR", "WSO1_ID": 122177, "Country": "United Kingdom" }, "geometry": { "type": "Point", "coordinates": [ 0.016066689308735, 51.760227851785366 ] } },
{ "type": "Feature", "properties": { "station": "KINGSTON", "WSO1_ID": 122732, "Country": "United Kingdom" }, "geometry": { "type": "Point", "coordinates": [ -0.306999998971337, 51.413999997333867 ] } },
{ "type": "Feature", "properties": { "station": "BEWDLEY", "WSO1_ID": 119488, "Country": "United Kingdom" }, "geometry": { "type": "Point", "coordinates": [ -2.320000000642293, 52.382999996768653 ] } },
{ "type": "Feature", "properties": { "station": "BEDFORD", "WSO1_ID": 121127, "Country": "United Kingdom" },